Timestamp (ms),Been Here,Venue Id,Venue Latitude,Venue Longitude,Focal Latitude,Focal Longitude,Arts & Entertainment,College & University,Event,Food,Nightlife Spot,Outdoors & Recreation,Professional & Other Places,Residence,Shop & Service,Travel & Transport
1394659859644,43,4d74b5dfe278f04d2ebc5ab8,46.53282374303429,10.935659370759629,46.53396448251934,10.936987262139695,1.0,0.0,0.0,0.0,0.0,0.0,0.0,0.0,0.0,0.0
1394659859644,14,4f23df53e4b0eec7fd8c1e47,46.53295051454609,10.958743394472389,46.53396448251934,10.957139945019641,0.0,1.0,0.0,0.0,0.0,0.0,0.0,0.0,0.0,0.0
1394659859644,18,4bd788c6304fce7283ae33ab,46.532840475487106,10.96310073445379,46.53396448251934,10.962178115739626,0.0,0.0,1.0,0.0,0.0,0.0,0.0,0.0,0.0,0.0
1394659859644,3,4fc130b4e4b0d3da58f005c5,46.532908,10.963411,46.53396448251934,10.962178115739626,0.0,0.0,0.0,1.0,0.0,0.0,0.0,0.0,0.0,0.0
1394659859644,5,52109df611d271f099b16da1,46.53458023071289,11.085801124572754,46.53396448251934,11.088132383739289,1.0,0.0,0.0,0.0,0.0,0.0,0.0,0.0,0.0,0.0
1394659859644,6,4ee0e03e7ee56b0308fc8cf5,46.5324758213324,11.20112210798714,46.53396448251934,11.198972139578991,0.0,0.0,1.0,0.0,0.0,0.0,0.0,0.0,0.0,0.0
1394659859644,2,4effb04c775bec6b43f3144d,46.5324758213324,11.20112210798714,46.53396448251934,11.198972139578991,0.0,0.0,1.0,0.0,0.0,0.0,0.0,0.0,0.0,0.0
1394659859644,6,4fdc48fde4b0735a6dcae54b,46.531737887297886,11.246811136765748,46.53396448251934,11.244315676058868,1.0,0.0,0.0,0.0,0.0,0.0,0.0,0.0,0.0,0.0
1394659859644,43,4e27ed842271752a458f26ae,46.5317036495234,11.247053179260863,46.53396448251934,11.249353846778856,0.0,0.0,1.0,0.0,0.0,0.0,0.0,0.0,0.0,0.0
1394659859644,28,4c603cab54ac0f471206b521,46.533703129877196,11.24816729588059,46.53396448251934,11.249353846778856,1.0,0.0,0.0,0.0,0.0,0.0,0.0,0.0,0.0,0.0
1394659859644,4,4fbfd7bbe4b0327851051760,46.53360810704077,11.2517729656904,46.53396448251934,11.249353846778856,0.0,1.0,0.0,0.0,0.0,0.0,0.0,0.0,0.0,0.0
1394659859644,4,518666a6498e6ba53b149d76,46.534018227609984,11.24871915088004,46.53396448251934,11.249353846778856,1.0,0.0,0.0,0.0,0.0,0.0,0.0,0.0,0.0,0.0
1394659859644,28,50223bf3e4b079960fe3d45e,46.534999888400186,11.331769680605877,46.53396448251934,11.32996457829864,0.0,1.0,0.0,0.0,0.0,0.0,0.0,0.0,0.0,0.0
1394659859644,5,4d5106497ee1a35db35e8b34,46.535255,11.331208,46.53396448251934,11.32996457829864,1.0,0.0,0.0,0.0,0.0,0.0,0.0,0.0,0.0,0.0
1394659859644,13,4ccf2c037f56a143ddd9c5a6,46.53498144849851,11.332196800814005,46.53396448251934,11.32996457829864,0.0,1.0,0.0,0.0,0.0,0.0,0.0,0.0,0.0,0.0
1394659859644,0,52f2d6f4498ed1f6b99961da,46.536024,11.329618,46.53396448251934,11.32996457829864,0.0,0.0,0.0,0.0,1.0,0.0,0.0,0.0,0.0,0.0
1394659859644,37,4d5103c03626a093861020bd,46.533765,11.333487,46.53396448251934,11.335002749018624,1.0,0.0,0.0,0.0,0.0,0.0,0.0,0.0,0.0,0.0
1394659859644,3,5013ac4fe4b0adaeb0bb5c64,46.534319,11.332761,46.53396448251934,11.335002749018624,0.0,0.0,0.0,1.0,0.0,0.0,0.0,0.0,0.0,0.0
1394659859644,1,50391248e4b0d3a794247a0a,46.53582095460189,11.366273223615272,46.53396448251934,11.365231773338543,0.0,0.0,0.0,0.0,0.0,1.0,0.0,0.0,0.0,0.0
1394659859644,1,5218f88711d24a6899858306,46.53169250488281,11.407942771911621,46.53396448251934,11.405537139098435,0.0,0.0,1.0,0.0,0.0,0.0,0.0,0.0,0.0,0.0
1394659859644,7,4eac2dc7991107f63ce64842,46.53305728397952,11.410397376657661,46.53396448251934,11.410575309818423,0.0,0.0,1.0,0.0,0.0,0.0,0.0,0.0,0.0,0.0
1394659859644,43,4e5880fdae60dbf65b502ee7,46.53097175715485,11.414482666559534,46.53396448251934,11.410575309818423,0.0,0.0,0.0,0.0,0.0,1.0,0.0,0.0,0.0,0.0
1394659859644,29,4dfb3217b0fb73bb4d78eb2e,46.535266024482496,11.4159110030039,46.53396448251934,11.415613480538408,1.0,0.0,0.0,0.0,0.0,0.0,0.0,0.0,0.0,0.0
1394659859644,7,4f783828e4b05cde61938945,46.532191,11.433389,46.53396448251934,11.435766163418354,0.0,0.0,0.0,0.0,0.0,0.0,1.0,0.0,0.0,0.0
1394659859644,1,4f785fd8e4b0e5e2bb8bcbdf,46.533522,11.435862,46.53396448251934,11.435766163418354,0.0,0.0,1.0,0.0,0.0,0.0,0.0,0.0,0.0,0.0
1394659859644,4,52c6f592498ebb6e07c7a800,46.53173101656694,11.44821041730497,46.53396448251934,11.445842504858327,0.0,1.0,0.0,0.0,0.0,0.0,0.0,0.0,0.0,0.0
1394659859644,67,4f0aee9ee4b06fab1b99f7bb,46.53159379939273,11.490597121922224,46.53396448251934,11.491186041338207,0.0,0.0,0.0,0.0,1.0,0.0,0.0,0.0,0.0,0.0
1394659859644,7,52206f3b11d20f0042a02a11,46.53164281712868,11.490489818874472,46.53396448251934,11.491186041338207,0.0,1.0,0.0,0.0,0.0,0.0,0.0,0.0,0.0,0.0
1394659859644,35,4e217842fa761d67107c283e,46.531633150774624,11.49090062382276,46.53396448251934,11.491186041338207,0.0,1.0,0.0,0.0,0.0,0.0,0.0,0.0,0.0,0.0
1394659859644,7,504b438ee4b03c3db12c767d,46.531706217501636,11.490577554529363,46.53396448251934,11.491186041338207,0.0,1.0,0.0,0.0,0.0,0.0,0.0,0.0,0.0,0.0
1394659859644,3,507839cbe4b08350eb71978d,46.532923,11.491078,46.53396448251934,11.491186041338207,1.0,0.0,0.0,0.0,0.0,0.0,0.0,0.0,0.0,0.0
1394659859644,6,5055b058e4b0ed8a08b57e66,46.53324277471249,11.493899113178394,46.53396448251934,11.496224212058191,0.0,1.0,0.0,0.0,0.0,0.0,0.0,0.0,0.0,0.0
1394659859644,4,4e43cff77d8bee282394cc0b,46.535201216170904,11.49490302283365,46.53396448251934,11.496224212058191,0.0,0.0,1.0,0.0,0.0,0.0,0.0,0.0,0.0,0.0
1394659859644,27,4e7f3ccc77c8da82acfa3d1c,46.535635229907456,11.500380115226793,46.53396448251934,11.50126238277818,0.0,0.0,0.0,0.0,0.0,0.0,0.0,1.0,0.0,0.0
1394659859644,0,511e7a69e4b078ac7f0e2c09,46.533111572265625,11.520045280456543,46.53396448251934,11.521415065658125,0.0,0.0,1.0,0.0,0.0,0.0,0.0,0.0,0.0,0.0
1394659859644,16,4f6462b0e4b0c7552cb4c973,46.53617631103993,11.524844592871531,46.53396448251934,11.52645323637811,1.0,0.0,0.0,0.0,0.0,0.0,0.0,0.0,0.0,0.0
1394659859644,14,4c36639aae2da593c41ffdc5,46.53295441182609,11.532993292105479,46.53396448251934,11.531491407098098,0.0,0.0,1.0,0.0,0.0,0.0,0.0,0.0,0.0,0.0
1394659859644,1,502cb584e4b064863654cc71,46.53202819824219,11.530524253845215,46.53396448251934,11.531491407098098,0.0,0.0,0.0,0.0,0.0,1.0,0.0,0.0,0.0,0.0
1394659859644,18,4fa40b1de4b0baf7cc42793c,46.531784959369055,11.531223886840632,46.53396448251934,11.531491407098098,0.0,1.0,0.0,0.0,0.0,0.0,0.0,0.0,0.0,0.0
1394659859644,51,4c4af6d846240f470bffa6f2,46.532835774268115,11.534408590742117,46.53396448251934,11.536529577818083,1.0,0.0,0.0,0.0,0.0,0.0,0.0,0.0,0.0,0.0
1394659859644,12,4e3d8fa7483b04e17a97bd8d,46.53284072258897,11.539734734472201,46.53396448251934,11.541567748538071,0.0,0.0,1.0,0.0,0.0,0.0,0.0,0.0,0.0,0.0
1394659859644,5,5034a8c5e4b0a2d03d86768b,46.536283900559816,11.568678244226785,46.53396448251934,11.566758602138002,0.0,0.0,0.0,0.0,0.0,0.0,0.0,1.0,0.0,0.0
1394659859644,8,500d539fe4b084af1f0c7cdc,46.53384448214902,11.583777920386028,46.53396448251934,11.581873114297963,0.0,0.0,1.0,0.0,0.0,0.0,0.0,0.0,0.0,0.0
1394659859644,3,4f34fbaee4b0517994f2abc0,46.531623168995964,11.601228932250152,46.53396448251934,11.602025797177909,0.0,1.0,0.0,0.0,0.0,0.0,0.0,0.0,0.0,0.0
1394659859644,15,4d8b2444d85f370483020ddc,46.53420476361253,11.603352120693119,46.53396448251934,11.602025797177909,1.0,0.0,0.0,0.0,0.0,0.0,0.0,0.0,0.0,0.0
1394659859644,7,4f51eac4e4b050039cf8b5d8,46.534282073246935,11.60286935906957,46.53396448251934,11.602025797177909,1.0,0.0,0.0,0.0,0.0,0.0,0.0,0.0,0.0,0.0
1394659859644,37,4d875ca99324236a827bf40e,46.53632744552575,11.610439298390471,46.53396448251934,11.612102138617882,1.0,0.0,0.0,0.0,0.0,0.0,0.0,0.0,0.0,0.0
1394659859644,3,4d3eaa1e8edf370478c1c5a5,46.536294,11.618507,46.53396448251934,11.617140309337866,1.0,0.0,0.0,0.0,0.0,0.0,0.0,0.0,0.0,0.0
1394659859644,39,4ee381bb8b81bab282836a80,46.53541538666169,11.625280020423604,46.53396448251934,11.62721665077784,0.0,0.0,1.0,0.0,0.0,0.0,0.0,0.0,0.0,0.0
1394659859644,8,4fdf3e21e4b0598b21b88aec,46.53553082501162,11.624996849353373,46.53396448251934,11.62721665077784,1.0,0.0,0.0,0.0,0.0,0.0,0.0,0.0,0.0,0.0
1394659859644,33,4d85dbb0f1e56ea8e12b928a,46.531982382687104,11.63661783108284,46.53396448251934,11.637292992217812,1.0,0.0,0.0,0.0,0.0,0.0,0.0,0.0,0.0,0.0
1394659859644,1,5275771911d2b7e9a86acdfb,46.533064,11.654907,46.53396448251934,11.652407504377774,1.0,0.0,0.0,0.0,0.0,0.0,0.0,0.0,0.0,0.0
1394659859644,21,4e1eb20ec65bd9e1fde01ee3,46.53254133133377,11.66895109105623,46.53396448251934,11.667522016537731,0.0,0.0,1.0,0.0,0.0,0.0,0.0,0.0,0.0,0.0
1394659859644,16,4f3677f3e4b0edf91be0c586,46.53264376562387,11.669726975019534,46.53396448251934,11.667522016537731,0.0,0.0,1.0,0.0,0.0,0.0,0.0,0.0,0.0,0.0
1394659859644,17,4f65f589e4b0788a909bcb3a,46.53162563077237,11.667507949914512,46.53396448251934,11.667522016537731,1.0,0.0,0.0,0.0,0.0,0.0,0.0,0.0,0.0,0.0
1394659859644,1,5213480711d2889d97d25ec4,46.535093,11.693191,46.53396448251934,11.692712870137665,0.0,1.0,0.0,0.0,0.0,0.0,0.0,0.0,0.0,0.0
1394659859644,403,4d43e5643616b60c198ddec2,46.53182586285522,11.750910184222722,46.53396448251934,11.753170918777503,1.0,0.0,0.0,0.0,0.0,0.0,0.0,0.0,0.0,0.0
1394659859644,102,4d4541662e326ea8b89aeca6,46.53365919027282,11.755136905816759,46.53396448251934,11.753170918777503,0.0,1.0,0.0,0.0,0.0,0.0,0.0,0.0,0.0,0.0
1394659859644,1,5146e907e4b01d537f49e130,46.533737,11.754942,46.53396448251934,11.753170918777503,0.0,1.0,0.0,0.0,0.0,0.0,0.0,0.0,0.0,0.0
1394659859644,73,512f38b8e4b032cf5a58f65d,46.53359614648798,11.771750842997381,46.53396448251934,11.773323601657449,1.0,0.0,0.0,0.0,0.0,0.0,0.0,0.0,0.0,0.0
1394659859644,367,4c33652fed37a593d8446d03,46.53313575754214,11.771666786293414,46.53396448251934,11.773323601657449,1.0,0.0,0.0,0.0,0.0,0.0,0.0,0.0,0.0,0.0
1394659859644,34,501f9177e4b04df428742139,46.532616622103404,11.774263773047569,46.53396448251934,11.773323601657449,0.0,0.0,1.0,0.0,0.0,0.0,0.0,0.0,0.0,0.0
1394659859644,11,52caa3f9498ece9a48b7d004,46.53352672902923,11.772274698250868,46.53396448251934,11.773323601657449,0.0,1.0,0.0,0.0,0.0,0.0,0.0,0.0,0.0,0.0
1394659859644,16,52161726498e9cb1a074371c,46.532122,11.771554,46.53396448251934,11.773323601657449,0.0,0.0,1.0,0.0,0.0,0.0,0.0,0.0,0.0,0.0
1394659859644,9,51e91713498e7870f1e96388,46.53325134292471,11.772637059969453,46.53396448251934,11.773323601657449,0.0,1.0,0.0,0.0,0.0,0.0,0.0,0.0,0.0,0.0
1394659859644,46,4f6c6c3ae4b0738fb128320d,46.533226660217245,11.772503572837385,46.53396448251934,11.773323601657449,0.0,0.0,1.0,0.0,0.0,0.0,0.0,0.0,0.0,0.0
1394659859644,17,510d0ec6e4b0eaff7520f622,46.53237982957378,11.774142313839151,46.53396448251934,11.773323601657449,0.0,0.0,1.0,0.0,0.0,0.0,0.0,0.0,0.0,0.0
1394659859644,7,5146f463e4b02de954587d60,46.533549,11.771566,46.53396448251934,11.773323601657449,0.0,0.0,1.0,0.0,0.0,0.0,0.0,0.0,0.0,0.0
1394659859644,31,4ef0e0286c256000c7664fa4,46.53410698680552,11.77238353141464,46.53396448251934,11.773323601657449,0.0,0.0,0.0,1.0,0.0,0.0,0.0,0.0,0.0,0.0
1394659859644,11,5110e77fe4b0ed5bb450bacd,46.53334290599749,11.772569725514956,46.53396448251934,11.773323601657449,1.0,0.0,0.0,0.0,0.0,0.0,0.0,0.0,0.0,0.0
1394659859644,5,4f577692e4b05abedfda65d2,46.533799315597584,11.77176779044708,46.53396448251934,11.773323601657449,0.0,0.0,1.0,0.0,0.0,0.0,0.0,0.0,0.0,0.0
1394659859644,8,50f5c1ede4b0ec32e8e9a8dd,46.533215,11.773067,46.53396448251934,11.773323601657449,0.0,0.0,1.0,0.0,0.0,0.0,0.0,0.0,0.0,0.0
1394659859644,3,4f793fa8e4b0cd1b34029ace,46.534052338206166,11.772773265838623,46.53396448251934,11.773323601657449,0.0,0.0,1.0,0.0,0.0,0.0,0.0,0.0,0.0,0.0
1394659859644,3,4c8bef46c37a6dcbf29cf27a,46.53377923924166,11.768135532219926,46.53396448251934,11.773323601657449,0.0,0.0,0.0,0.0,0.0,1.0,0.0,0.0,0.0,0.0
1394659859644,21,4e6397cc52b1260c139d27e6,46.53633548846888,11.821813296519995,46.53396448251934,11.823705308857313,0.0,0.0,1.0,0.0,0.0,0.0,0.0,0.0,0.0,0.0
1394659859644,41,4d73bdc95f0037046923f4a0,46.53156380508915,10.958842386960798,46.529219749518106,10.957139945019641,0.0,0.0,1.0,0.0,0.0,0.0,0.0,0.0,0.0,0.0
1394659859644,42,4e84402de5e8ac582a66968b,46.52830991476639,10.95484972000122,46.529219749518106,10.957139945019641,0.0,0.0,1.0,0.0,0.0,0.0,0.0,0.0,0.0,0.0
1394659859644,26,4f2c3706e4b0ccfb1db9bcab,46.53151660198947,10.958524811899418,46.529219749518106,10.957139945019641,0.0,1.0,0.0,0.0,0.0,0.0,0.0,0.0,0.0,0.0
1394659859644,56,4f3a24fbe4b0459ce9d65bf4,46.5303877759673,10.955776007835551,46.529219749518106,10.957139945019641,1.0,0.0,0.0,0.0,0.0,0.0,0.0,0.0,0.0,0.0
1394659859644,11,4ead3468490170218c3093bc,46.53006051566813,10.958302939075349,46.529219749518106,10.957139945019641,0.0,0.0,0.0,0.0,0.0,0.0,0.0,0.0,1.0,0.0
1394659859644,2,4e634d68a80951b318df3799,46.52850554983095,10.955738580914288,46.529219749518106,10.957139945019641,0.0,1.0,0.0,0.0,0.0,0.0,0.0,0.0,0.0,0.0
1394659859644,1,4e3529282271b2cf0674be52,46.527610537511435,11.073571131967864,46.529219749518106,11.073017871579328,1.0,0.0,0.0,0.0,0.0,0.0,0.0,0.0,0.0,0.0
1394659859644,26,4e462a8d887781a619a7267f,46.52937209303254,11.11147318411817,46.529219749518106,11.11332323733922,1.0,0.0,0.0,0.0,0.0,0.0,0.0,0.0,0.0,0.0
1394659859644,2,4e351712a8092599ee0162db,46.529057144314486,11.111483665396138,46.529219749518106,11.11332323733922,1.0,0.0,0.0,0.0,0.0,0.0,0.0,0.0,0.0,0.0
1394659859644,4,4e182ce318a8166f7388d692,46.528116845355875,11.187821940441689,46.529219749518106,11.188895798139018,0.0,0.0,0.0,0.0,0.0,0.0,0.0,0.0,1.0,0.0
1394659859644,2,4ff72991e4b03705ce337af3,46.529856,11.186786,46.529219749518106,11.188895798139018,0.0,1.0,0.0,0.0,0.0,0.0,0.0,0.0,0.0,0.0
1394659859644,8,4e7f0c21be7b5fafd2c0fef4,46.52811389006391,11.187934852435806,46.529219749518106,11.188895798139018,0.0,1.0,0.0,0.0,0.0,0.0,0.0,0.0,0.0,0.0
1394659859644,7,50e96753e4b0f0d9e83f4136,46.53059736843036,11.241718379734232,46.529219749518106,11.239277505338883,0.0,0.0,1.0,0.0,0.0,0.0,0.0,0.0,0.0,0.0
1394659859644,135,4e9af442d22d8be589473d95,46.52954840463764,11.24829621015145,46.529219749518106,11.249353846778856,1.0,0.0,0.0,0.0,0.0,0.0,0.0,0.0,0.0,0.0
1394659859644,76,4e46312ab61c03d0cd08a021,46.52850780942543,11.248565625394932,46.529219749518106,11.249353846778856,0.0,0.0,1.0,0.0,0.0,0.0,0.0,0.0,0.0,0.0
1394659859644,38,4dcbb6f3ae60f20544140bc8,46.528983,11.248933,46.529219749518106,11.249353846778856,0.0,1.0,0.0,0.0,0.0,0.0,0.0,0.0,0.0,0.0
1394659859644,55,4e6620ac45ddda352b214141,46.530668175060086,11.251841400104984,46.529219749518106,11.249353846778856,0.0,1.0,0.0,0.0,0.0,0.0,0.0,0.0,0.0,0.0
1394659859644,8,4eae7a0a5c5ce6e506721104,46.5296903925132,11.249598517910261,46.529219749518106,11.249353846778856,0.0,0.0,0.0,0.0,1.0,0.0,0.0,0.0,0.0,0.0
1394659859644,12,4fc39d27e4b0524b5d1f3f7c,46.531200977065104,11.249485802024287,46.529219749518106,11.249353846778856,0.0,1.0,0.0,0.0,0.0,0.0,0.0,0.0,0.0,0.0
1394659859644,5,50688e9fe4b0bb47b2c7070f,46.53026371708138,11.247504515716274,46.529219749518106,11.249353846778856,0.0,1.0,0.0,0.0,0.0,0.0,0.0,0.0,0.0,0.0
1394659859644,1,51554f36e4b089600f73ca64,46.529575,11.249509,46.529219749518106,11.249353846778856,0.0,0.0,0.0,0.0,0.0,0.0,0.0,0.0,1.0,0.0
1394659859644,2,4ed622dd0e61cbb93961f488,46.527039,11.247146,46.529219749518106,11.249353846778856,0.0,0.0,0.0,0.0,0.0,0.0,0.0,0.0,1.0,0.0
1394659859644,2,4fd8bcdae4b000c41755b01e,46.52829,11.249818,46.529219749518106,11.249353846778856,0.0,0.0,0.0,0.0,0.0,0.0,0.0,1.0,0.0,0.0
1394659859644,1,505cc080498e46c28a687f2b,46.529126,11.247636,46.529219749518106,11.249353846778856,0.0,0.0,1.0,0.0,0.0,0.0,0.0,0.0,0.0,0.0
1394659859644,1,4d8263ecf1f88cfabaa2df4f,46.529348,11.251289,46.529219749518106,11.249353846778856,0.0,0.0,1.0,0.0,0.0,0.0,0.0,0.0,0.0,0.0
1394659859644,6,4dd56d347d8b322663bf50a3,46.52757177003226,11.253690719604492,46.529219749518106,11.25439201749884,0.0,0.0,0.0,0.0,1.0,0.0,0.0,0.0,0.0,0.0
1394659859644,37,4e0332c0483bb38cf0f201ee,46.52770646904077,11.253269474443897,46.529219749518106,11.25439201749884,0.0,1.0,0.0,0.0,0.0,0.0,0.0,0.0,0.0,0.0
1394659859644,6,4ed0e94ff790d07039096a14,46.527687120713495,11.253569682768433,46.529219749518106,11.25439201749884,0.0,1.0,0.0,0.0,0.0,0.0,0.0,0.0,0.0,0.0
1394659859644,8,4e687780fa768a5e3cdc0f39,46.53084885569773,11.34026805176783,46.529219749518106,11.340040919738613,0.0,0.0,1.0,0.0,0.0,0.0,0.0,0.0,0.0,0.0
1394659859644,3,4e6ccc6862e15039f8220a6f,46.530848,11.340284,46.529219749518106,11.340040919738613,0.0,1.0,0.0,0.0,0.0,0.0,0.0,0.0,0.0,0.0
1394659859644,6,4e0d872fae603a50b5398e66,46.531033,11.339875,46.529219749518106,11.340040919738613,1.0,0.0,0.0,0.0,0.0,0.0,0.0,0.0,0.0,0.0
1394659859644,1,4d8f39f4c479a35d625e5797,46.529936,11.365335,46.529219749518106,11.365231773338543,1.0,0.0,0.0,0.0,0.0,0.0,0.0,0.0,0.0,0.0
1394659859644,49,4e09fdfa1f6e2110339e16ba,46.52814121623778,11.405726565694234,46.529219749518106,11.405537139098435,0.0,1.0,0.0,0.0,0.0,0.0,0.0,0.0,0.0,0.0
1394659859644,240,4c4ee9e0fb742d7f9101122f,46.5281081199646,11.405224800109863,46.529219749518106,11.405537139098435,0.0,0.0,1.0,0.0,0.0,0.0,0.0,0.0,0.0,0.0
1394659859644,131,4d948c5058caa143cf83ad25,46.528239758881604,11.405294307396055,46.529219749518106,11.405537139098435,1.0,0.0,0.0,0.0,0.0,0.0,0.0,0.0,0.0,0.0
1394659859644,20,4f52027fe4b03be36261c891,46.52815299681361,11.405101607951991,46.529219749518106,11.405537139098435,1.0,0.0,0.0,0.0,0.0,0.0,0.0,0.0,0.0,0.0
1394659859644,48,4ee4d128f790897ed0be9a84,46.52831879749567,11.405015481249924,46.529219749518106,11.405537139098435,0.0,1.0,0.0,0.0,0.0,0.0,0.0,0.0,0.0,0.0
1394659859644,32,4de16653d164df8574e252cd,46.52821583246892,11.404000333083196,46.529219749518106,11.405537139098435,0.0,0.0,1.0,0.0,0.0,0.0,0.0,0.0,0.0,0.0
1394659859644,8,4fcf8ecee4b0ad8ae2a72fa6,46.528135930248396,11.406074655739838,46.529219749518106,11.405537139098435,0.0,0.0,0.0,0.0,1.0,0.0,0.0,0.0,0.0,0.0
1394659859644,14,5172c1a2e4b0bb056381d6a9,46.5283870697021,11.4032238721848,46.529219749518106,11.405537139098435,0.0,1.0,0.0,0.0,0.0,0.0,0.0,0.0,0.0,0.0
1394659859644,14,4fb49b777b0c74e0b913d470,46.52842801699302,11.403036117553711,46.529219749518106,11.405537139098435,0.0,1.0,0.0,0.0,0.0,0.0,0.0,0.0,0.0,0.0
1394659859644,37,4bdf2fb27ea362b5736243c4,46.527591410612395,11.405987443310373,46.529219749518106,11.405537139098435,0.0,0.0,1.0,0.0,0.0,0.0,0.0,0.0,0.0,0.0
1394659859644,65,4e41066952b17005f5c4fbe7,46.52818333716814,11.40547855844009,46.529219749518106,11.405537139098435,0.0,0.0,1.0,0.0,0.0,0.0,0.0,0.0,0.0,0.0
1394659859644,3,51f2af16498ee48f058f931e,46.52848246835474,11.404714131491316,46.529219749518106,11.405537139098435,0.0,0.0,1.0,0.0,0.0,0.0,0.0,0.0,0.0,0.0
1394659859644,1,514440a4e4b0ab7c8aa59d75,46.5283,11.4058,46.529219749518106,11.405537139098435,0.0,0.0,0.0,0.0,1.0,0.0,0.0,0.0,0.0,0.0
1394659859644,39,4e15aed41495a0bf9539903e,46.527955446178915,11.405597502352968,46.529219749518106,11.405537139098435,0.0,0.0,1.0,0.0,0.0,0.0,0.0,0.0,0.0,0.0
1394659859644,3,4ff03332e4b036efb4285e02,46.52717350577499,11.407389845364339,46.529219749518106,11.405537139098435,1.0,0.0,0.0,0.0,0.0,0.0,0.0,0.0,0.0,0.0
1394659859644,3,51443e8de4b00b9d221dd9c5,46.5284,11.4033,46.529219749518106,11.405537139098435,0.0,0.0,0.0,0.0,1.0,0.0,0.0,0.0,0.0,0.0
1394659859644,2,502b9884e4b0661ae3a28ebb,46.530293273649995,11.407583424012751,46.529219749518106,11.405537139098435,1.0,0.0,0.0,0.0,0.0,0.0,0.0,0.0,0.0,0.0
1394659859644,7,50161d2ce4b0073bd124ced8,46.528975746126,11.406671248330914,46.529219749518106,11.405537139098435,0.0,0.0,0.0,0.0,0.0,0.0,0.0,0.0,1.0,0.0
1394659859644,2,503fa6ebe4b04a42bdb61f27,46.529464,11.405479,46.529219749518106,11.405537139098435,0.0,0.0,1.0,0.0,0.0,0.0,0.0,0.0,0.0,0.0
1394659859644,2,51c5c512498e6e1b19ea746a,46.52828147359602,11.40708640107321,46.529219749518106,11.405537139098435,1.0,0.0,0.0,0.0,0.0,0.0,0.0,0.0,0.0,0.0
1394659859644,2,502fa722e4b003c0ecaedc3f,46.527241,11.407299,46.529219749518106,11.405537139098435,1.0,0.0,0.0,0.0,0.0,0.0,0.0,0.0,0.0,0.0
1394659859644,7,51715cb0e4b08b221f520b1a,46.5311336517334,11.4052730798721,46.529219749518106,11.405537139098435,0.0,0.0,0.0,0.0,1.0,0.0,0.0,0.0,0.0,0.0
1394659859644,2,51442b32e4b03152762d6ea5,46.5285,11.4033,46.529219749518106,11.405537139098435,0.0,0.0,0.0,0.0,1.0,0.0,0.0,0.0,0.0,0.0
1394659859644,1,52038a10498e9130d8a0a5e3,46.527811,11.409035,46.529219749518106,11.410575309818423,0.0,0.0,1.0,0.0,0.0,0.0,0.0,0.0,0.0,0.0
1394659859644,11,4efb27166da1f7b664487fed,46.53009409011911,11.413739982936505,46.529219749518106,11.415613480538408,0.0,0.0,1.0,0.0,0.0,0.0,0.0,0.0,0.0,0.0
1394659859644,7,51962424498edda84e2fb16f,46.52872,11.42105,46.529219749518106,11.420651651258396,0.0,0.0,1.0,0.0,0.0,0.0,0.0,0.0,0.0,0.0
1394659859644,2,5233532211d259bebb2b3da9,46.528565909466025,11.4254715405522,46.529219749518106,11.42568982197838,0.0,0.0,1.0,0.0,0.0,0.0,0.0,0.0,0.0,0.0
1394659859644,1,4e82fe75be7b92ebc8a762ff,46.527981,11.432967,46.529219749518106,11.430727992698369,0.0,1.0,0.0,0.0,0.0,0.0,0.0,0.0,0.0,0.0
1394659859644,7,4ead3c5f5c5ce6e505efd7f7,46.53047999466112,11.434341354263562,46.529219749518106,11.435766163418354,0.0,1.0,0.0,0.0,0.0,0.0,0.0,0.0,0.0,0.0
1394659859644,37,4d5fff2c5c39b1f7c798fe49,46.53046523998205,11.43404245376587,46.529219749518106,11.435766163418354,0.0,0.0,1.0,0.0,0.0,0.0,0.0,0.0,0.0,0.0
1394659859644,14,4e44f668887703085fe690b2,46.53032344517395,11.434241166536415,46.529219749518106,11.435766163418354,0.0,0.0,1.0,0.0,0.0,0.0,0.0,0.0,0.0,0.0
1394659859644,1,51569f11e4b07cf8c39a4346,46.5307688713074,11.4458978176117,46.529219749518106,11.445842504858327,0.0,0.0,0.0,0.0,1.0,0.0,0.0,0.0,0.0,0.0
1394659859644,5,4feeb1afe4b0c594c27b83cb,46.5291,11.4457,46.529219749518106,11.445842504858327,0.0,0.0,0.0,0.0,1.0,0.0,0.0,0.0,0.0,0.0
1394659859644,2,4fdb4b58e4b08187e9cb6d1f,46.52796709850087,11.450772358710516,46.529219749518106,11.450880675578315,0.0,1.0,0.0,0.0,0.0,0.0,0.0,0.0,0.0,0.0
1394659859644,25,4ff86791e4b05ae5248b4d64,46.52766460819605,11.450553029155069,46.529219749518106,11.450880675578315,0.0,0.0,0.0,0.0,1.0,0.0,0.0,0.0,0.0,0.0
1394659859644,17,4ed52d87e5fa7b1a92b018b3,46.53150515525979,11.49127615659533,46.529219749518106,11.491186041338207,0.0,1.0,0.0,0.0,0.0,0.0,0.0,0.0,0.0,0.0
1394659859644,21,4e1c26c2e4cd1f7c5d7d406d,46.53143427043878,11.49157005205106,46.529219749518106,11.491186041338207,0.0,1.0,0.0,0.0,0.0,0.0,0.0,0.0,0.0,0.0
1394659859644,2,4e6b843745ddadf2d0f10ef5,46.530250549316406,11.518121719360352,46.529219749518106,11.516376894938137,0.0,0.0,1.0,0.0,0.0,0.0,0.0,0.0,0.0,0.0
1394659859644,4,502cb67ee4b01042a21a70cb,46.530033144648705,11.529284589560888,46.529219749518106,11.531491407098098,0.0,0.0,0.0,0.0,0.0,1.0,0.0,0.0,0.0,0.0
1394659859644,38,4d1c69f3f8ca236a1de4f530,46.529107,11.600363,46.529219749518106,11.602025797177909,0.0,1.0,0.0,0.0,0.0,0.0,0.0,0.0,0.0,0.0
1394659859644,35,4c592c0af346c92853ef4bca,46.52762532234192,11.619431376457214,46.529219749518106,11.617140309337866,0.0,1.0,0.0,0.0,0.0,0.0,0.0,0.0,0.0,0.0
1394659859644,35,4e52520f45ddae62fc7f5e13,46.527443,11.619202,46.529219749518106,11.617140309337866,0.0,1.0,0.0,0.0,0.0,0.0,0.0,0.0,0.0,0.0
1394659859644,63,4d87433299b78cfa41c7f41f,46.53114185873927,11.625409520342966,46.529219749518106,11.62721665077784,1.0,0.0,0.0,0.0,0.0,0.0,0.0,0.0,0.0,0.0
1394659859644,37,4fef0afae4b0bfd1e5a7e4de,46.5312101620225,11.6249781104571,46.529219749518106,11.62721665077784,1.0,0.0,0.0,0.0,0.0,0.0,0.0,0.0,0.0,0.0
1394659859644,47,4d85d30b5ad3a093c0d3ecfd,46.528567510438364,11.638244594410668,46.529219749518106,11.637292992217812,1.0,0.0,0.0,0.0,0.0,0.0,0.0,0.0,0.0,0.0
1394659859644,40,4e4fa0152271a1bdc3e07229,46.52815785864612,11.65981751260728,46.529219749518106,11.657445675097758,1.0,0.0,0.0,0.0,0.0,0.0,0.0,0.0,0.0,0.0
1394659859644,11,4d98be262bd6f04d9d666f50,46.528693574972394,11.661024570362429,46.529219749518106,11.662483845817746,0.0,1.0,0.0,0.0,0.0,0.0,0.0,0.0,0.0,0.0
1394659859644,77,4d1b0eb0dd363704bea9601a,46.52952603345318,11.666094039204769,46.529219749518106,11.667522016537731,1.0,0.0,0.0,0.0,0.0,0.0,0.0,0.0,0.0,0.0
1394659859644,50,5007d68ae4b04aed83c76afe,46.52989299621322,11.66924592726247,46.529219749518106,11.667522016537731,1.0,0.0,0.0,0.0,0.0,0.0,0.0,0.0,0.0,0.0
1394659859644,8,4c7f8f1401df3704e472e6ac,46.53104830466621,11.67485108740777,46.529219749518106,11.67256018725772,0.0,1.0,0.0,0.0,0.0,0.0,0.0,0.0,0.0,0.0
1394659859644,5,4e4e4bc17d8bd425e47e862a,46.531361,11.723191,46.529219749518106,11.722941894457584,1.0,0.0,0.0,0.0,0.0,0.0,0.0,0.0,0.0,0.0
1394659859644,531,4c61587c90b2c9b694e03e22,46.528782322132095,11.748161315917969,46.529219749518106,11.748132748057515,0.0,0.0,1.0,0.0,0.0,0.0,0.0,0.0,0.0,0.0
1394659859644,89,4f702c80e4b0e0075cfca233,46.52865890891457,11.74870647475492,46.529219749518106,11.748132748057515,1.0,0.0,0.0,0.0,0.0,0.0,0.0,0.0,0.0,0.0
1394659859644,21,52c9274c498e827a25e7cecd,46.53098599695012,11.768857090780008,46.529219749518106,11.76828543093746,1.0,0.0,0.0,0.0,0.0,0.0,0.0,0.0,0.0,0.0
1394659859644,4,505c4975e4b0e4ac1472e127,46.531469,11.824775,46.529219749518106,11.823705308857313,1.0,0.0,0.0,0.0,0.0,0.0,0.0,0.0,0.0,0.0
1394659859644,3,523c827811d22b2baa4e475c,46.522203,10.930222,46.524475016516874,10.931949091419707,0.0,0.0,1.0,0.0,0.0,0.0,0.0,0.0,0.0,0.0
1394659859644,1,4f7f3172121dfa832878aa1f,46.52230112513709,11.229851245880127,46.524475016516874,11.22920116389891,0.0,0.0,1.0,0.0,0.0,0.0,0.0,0.0,0.0,0.0
1394659859644,2,4e8b69b7775b366204184643,46.520898748597695,11.222620110074358,46.524475016516874,11.22920116389891,0.0,0.0,0.0,0.0,0.0,1.0,0.0,0.0,0.0,0.0
1394659859644,33,4deb9c4588774880e33a2278,46.52463367038434,11.239605164392106,46.524475016516874,11.239277505338883,0.0,0.0,1.0,0.0,0.0,0.0,0.0,0.0,0.0,0.0
1394659859644,2,518baa12498e1550e1e1b7e1,46.52301765682092,11.243796498672296,46.524475016516874,11.244315676058868,1.0,0.0,0.0,0.0,0.0,0.0,0.0,0.0,0.0,0.0
1394659859644,6,4e511b5318a8af30fd9c01e1,46.522159,11.299083,46.524475016516874,11.29973555397872,0.0,1.0,0.0,0.0,0.0,0.0,0.0,0.0,0.0,0.0
1394659859644,12,4dde2cf852b155583dfb2f86,46.52558150684831,11.356523819683128,46.524475016516874,11.35515543189857,0.0,1.0,0.0,0.0,0.0,0.0,0.0,0.0,0.0,0.0
1394659859644,7,4cf0f87a94feb1f7356814ba,46.524294,11.391752,46.524475016516874,11.390422626938477,0.0,0.0,0.0,0.0,0.0,0.0,0.0,0.0,1.0,0.0
1394659859644,1,4e2c30ffa809f1b1641746c0,46.524559,11.391396,46.524475016516874,11.390422626938477,0.0,1.0,0.0,0.0,0.0,0.0,0.0,0.0,0.0,0.0
1394659859644,2,508a742be4b05f3f829dbb3f,46.524419,11.393979,46.524475016516874,11.395460797658462,0.0,0.0,1.0,0.0,0.0,0.0,0.0,0.0,0.0,0.0
1394659859644,2,4e2c09fe1f6ebe5442597f3e,46.522217,11.401152,46.524475016516874,11.40049896837845,0.0,1.0,0.0,0.0,0.0,0.0,0.0,0.0,0.0,0.0
1394659859644,6,4e3d1de21f6e844231e08640,46.525067335096786,11.42456399240681,46.524475016516874,11.42568982197838,1.0,0.0,0.0,0.0,0.0,0.0,0.0,0.0,0.0,0.0
1394659859644,12,4eab2a035c5cf8848a933941,46.524958717665406,11.4243149309005,46.524475016516874,11.42568982197838,0.0,0.0,1.0,0.0,0.0,0.0,0.0,0.0,0.0,0.0
1394659859644,7,4e887cb1f790d6e1fef70f68,46.5249827309861,11.424364340066878,46.524475016516874,11.42568982197838,0.0,1.0,0.0,0.0,0.0,0.0,0.0,0.0,0.0,0.0
1394659859644,12,4d4eac404a38b60c2544ec66,46.525709,11.423522,46.524475016516874,11.42568982197838,0.0,0.0,1.0,0.0,0.0,0.0,0.0,0.0,0.0,0.0
1394659859644,2,51a1e62b498e3fa34b480c54,46.525159,11.427677,46.524475016516874,11.42568982197838,0.0,0.0,0.0,0.0,0.0,0.0,0.0,1.0,0.0,0.0
1394659859644,4,5077d537e4b0e1c7ac35a8a5,46.52438747160437,11.426913823845181,46.524475016516874,11.42568982197838,0.0,0.0,0.0,0.0,1.0,0.0,0.0,0.0,0.0,0.0
1394659859644,11,4e9adc906c2592b36cd33905,46.5237630991587,11.472920186755534,46.524475016516874,11.47103335845826,0.0,1.0,0.0,0.0,0.0,0.0,0.0,0.0,0.0,0.0
1394659859644,0,4fe2e9b9e4b08d2f0d6b57fc,46.52324676513672,11.497262001037598,46.524475016516874,11.496224212058191,0.0,1.0,0.0,0.0,0.0,0.0,0.0,0.0,0.0,0.0
1394659859644,0,4de763a5e4cdfedb8a9be20b,46.523824,11.494163,46.524475016516874,11.496224212058191,0.0,1.0,0.0,0.0,0.0,0.0,0.0,0.0,0.0,0.0
1394659859644,1,4c0f4d571281c9b6a5621e1d,46.524519,11.500888,46.524475016516874,11.50126238277818,0.0,1.0,0.0,0.0,0.0,0.0,0.0,0.0,0.0,0.0
1394659859644,16,4ccc52daba0a548197823c59,46.52573745233848,11.508442836994274,46.524475016516874,11.506300553498164,0.0,0.0,1.0,0.0,0.0,0.0,0.0,0.0,0.0,0.0
1394659859644,2,4f48e05fe4b0e7e90f13ebf1,46.52120350458107,11.510965298113902,46.524475016516874,11.506300553498164,0.0,0.0,0.0,0.0,0.0,1.0,0.0,0.0,0.0,0.0
1394659859644,1,52e1531a498e27e87803f579,46.523353576660156,11.516443252563477,46.524475016516874,11.516376894938137,0.0,0.0,1.0,0.0,0.0,0.0,0.0,0.0,0.0,0.0
1394659859644,0,52e15273498e210e9aa1bf15,46.524166107177734,11.51727294921875,46.524475016516874,11.516376894938137,0.0,0.0,1.0,0.0,0.0,0.0,0.0,0.0,0.0,0.0
1394659859644,125,4c07a91fb4aa0f470de86562,46.522312573289724,11.52315266881464,46.524475016516874,11.521415065658125,1.0,0.0,0.0,0.0,0.0,0.0,0.0,0.0,0.0,0.0
1394659859644,26,4e6c786b45dd435bc10cf528,46.524101073641305,11.523550696576331,46.524475016516874,11.521415065658125,0.0,1.0,0.0,0.0,0.0,0.0,0.0,0.0,0.0,0.0
1394659859644,5,4f59235be4b01aa76b04b9e0,46.525230407714844,11.572593688964844,46.524475016516874,11.57179677285799,1.0,0.0,0.0,0.0,0.0,0.0,0.0,0.0,0.0,0.0
1394659859644,1,5034e76de4b0738fb8178e0c,46.52592849731445,11.612739562988281,46.524475016516874,11.612102138617882,0.0,0.0,0.0,0.0,0.0,0.0,0.0,0.0,1.0,0.0
1394659859644,29,4d443262e198721e5307b98b,46.52604927875979,11.639044784066481,46.524475016516874,11.637292992217812,0.0,0.0,1.0,0.0,0.0,0.0,0.0,0.0,0.0,0.0
1394659859644,11,500e86d5e4b057e4cb6cdccd,46.522608520860274,11.640746367832035,46.524475016516874,11.6423311629378,1.0,0.0,0.0,0.0,0.0,0.0,0.0,0.0,0.0,0.0
1394659859644,48,4e16e560aeb7e76b4f21c9d6,46.52678932566247,11.650443077087402,46.524475016516874,11.652407504377774,0.0,1.0,0.0,0.0,0.0,0.0,0.0,0.0,0.0,0.0
1394659859644,9,4d8883da26a36ea814caccad,46.52673575738073,11.650707954911242,46.524475016516874,11.652407504377774,0.0,1.0,0.0,0.0,0.0,0.0,0.0,0.0,0.0,0.0
1394659859644,12,5103f95de4b0059cdc55b28a,46.52592,11.664447,46.524475016516874,11.662483845817746,0.0,0.0,0.0,0.0,0.0,0.0,0.0,0.0,1.0,0.0
1394659859644,64,4d1da4bb2eb1f04df949d8c1,46.526467823924385,11.675680614186486,46.524475016516874,11.677598357977704,1.0,0.0,0.0,0.0,0.0,0.0,0.0,0.0,0.0,0.0
1394659859644,10,53075a67498e5d419d187d43,46.525558,11.759775,46.524475016516874,11.758209089497488,1.0,0.0,0.0,0.0,0.0,0.0,0.0,0.0,0.0,0.0
1394659859644,6,4f67199de4b098610d328345,46.52536626457824,11.755187700028495,46.524475016516874,11.758209089497488,0.0,1.0,0.0,0.0,0.0,0.0,0.0,0.0,0.0,0.0
1394659859644,554,4cfa24ee34c1a093ad6d3e0e,46.52606304372791,11.763013528866939,46.524475016516874,11.763247260217476,1.0,0.0,0.0,0.0,0.0,0.0,0.0,0.0,0.0,0.0
1394659859644,71,4b963e16f964a5200ec234e3,46.523787,11.76491,46.524475016516874,11.763247260217476,1.0,0.0,0.0,0.0,0.0,0.0,0.0,0.0,0.0,0.0
1394659859644,20,511381a8e4b0fbce924e1f17,46.526324191850975,11.762794380565905,46.524475016516874,11.763247260217476,1.0,0.0,0.0,0.0,0.0,0.0,0.0,0.0,0.0,0.0
1394659859644,26,4d83426df1e56ea8e5455c8a,46.524528185630054,11.766110551850213,46.524475016516874,11.76828543093746,0.0,1.0,0.0,0.0,0.0,0.0,0.0,0.0,0.0,0.0
1394659859644,18,4e10555dd1647a0fff76e1e8,46.521256926043975,11.225814869408767,46.51973028351564,11.224162993178922,1.0,0.0,0.0,0.0,0.0,0.0,0.0,0.0,0.0,0.0
1394659859644,1,516959c8e4b0fffdafb800a8,46.52137877332871,11.22606033983666,46.51973028351564,11.224162993178922,1.0,0.0,0.0,0.0,0.0,0.0,0.0,0.0,0.0,0.0
1394659859644,74,4f355260e4b0e4d04f594bda,46.521592,11.231031,46.51973028351564,11.22920116389891,1.0,0.0,0.0,0.0,0.0,0.0,0.0,0.0,0.0,0.0
1394659859644,1,52c2f8c9498e29010fa5f7f3,46.517799,11.229473,46.51973028351564,11.22920116389891,0.0,0.0,1.0,0.0,0.0,0.0,0.0,0.0,0.0,0.0
1394659859644,12,4dcabe51e4cde9e42f8d9c04,46.518357,11.233019,46.51973028351564,11.234239334618895,0.0,0.0,1.0,0.0,0.0,0.0,0.0,0.0,0.0,0.0
1394659859644,25,4bd8ad392ecdce72c0e8d0f2,46.51884244793482,11.233981847763062,46.51973028351564,11.234239334618895,0.0,0.0,0.0,1.0,0.0,0.0,0.0,0.0,0.0,0.0
1394659859644,1,4edf8e81e300bf196b4d7401,46.519036750139534,11.233508054546556,46.51973028351564,11.234239334618895,0.0,0.0,0.0,0.0,1.0,0.0,0.0,0.0,0.0,0.0
1394659859644,2,50d60440e4b004dcda7a1a55,46.51894,11.233382,46.51973028351564,11.234239334618895,0.0,0.0,0.0,1.0,0.0,0.0,0.0,0.0,0.0,0.0
1394659859644,2,5187aa1e498ecce31b7af628,46.520345,11.238109,46.51973028351564,11.239277505338883,0.0,0.0,0.0,0.0,0.0,0.0,0.0,0.0,1.0,0.0
1394659859644,1,4f48c03be4b024e50c75f473,46.522064208984375,11.245660781860352,46.51973028351564,11.244315676058868,0.0,0.0,0.0,0.0,0.0,0.0,0.0,0.0,1.0,0.0
1394659859644,3,4e11a515e4cdef074b7522ed,46.519196,11.261484,46.51973028351564,11.259430188218829,0.0,1.0,0.0,0.0,0.0,0.0,0.0,0.0,0.0,0.0
1394659859644,2,4f79f436e4b06bb780ae3380,46.519614,11.262006,46.51973028351564,11.264468358938814,0.0,1.0,0.0,0.0,0.0,0.0,0.0,0.0,0.0,0.0
1394659859644,1,527d447511d21ad1e472db01,46.521084,11.26875,46.51973028351564,11.269506529658802,0.0,1.0,0.0,0.0,0.0,0.0,0.0,0.0,0.0,0.0
1394659859644,6,4f171cb9e4b0044a28e1d929,46.52040981245547,11.361884161870796,46.51973028351564,11.360193602618558,0.0,0.0,0.0,0.0,0.0,0.0,0.0,1.0,0.0,0.0
1394659859644,1,5048963be4b0491500cf5555,46.5218620300293,11.36293888092041,46.51973028351564,11.365231773338543,0.0,0.0,0.0,0.0,0.0,0.0,0.0,0.0,1.0,0.0
1394659859644,16,4e15a883b0fb1946c79562f9,46.52154813412192,11.407198905944824,46.51973028351564,11.405537139098435,1.0,0.0,0.0,0.0,0.0,0.0,0.0,0.0,0.0,0.0
1394659859644,36,4c38911893db0f47c6bf2192,46.52099864344532,11.426739099247905,46.51973028351564,11.42568982197838,1.0,0.0,0.0,0.0,0.0,0.0,0.0,0.0,0.0,0.0
1394659859644,7,4fb39847d5fb70abf44f6e14,46.521038751929275,11.423892974853516,46.51973028351564,11.42568982197838,0.0,0.0,1.0,0.0,0.0,0.0,0.0,0.0,0.0,0.0
1394659859644,6,51054496e4b026c3c7f2e21f,46.52122116088867,11.42698574066162,46.51973028351564,11.42568982197838,0.0,0.0,1.0,0.0,0.0,0.0,0.0,0.0,0.0,0.0
1394659859644,34,4e8978626da1378fc716e187,46.51859036756217,11.448304830153818,46.51973028351564,11.445842504858327,0.0,0.0,0.0,0.0,0.0,0.0,0.0,0.0,1.0,0.0
1394659859644,1,513b6177e4b0252e857f7c9c,46.52056232820003,11.444091905429117,46.51973028351564,11.445842504858327,0.0,0.0,0.0,0.0,0.0,0.0,0.0,1.0,0.0,0.0
1394659859644,254,4fcd9576e4b0c9b32151dfbc,46.51776685282549,11.448592431450054,46.51973028351564,11.450880675578315,0.0,0.0,0.0,0.0,0.0,0.0,0.0,0.0,1.0,0.0
1394659859644,1,5033db69e4b05fc6a8d98245,46.519527435302734,11.497182846069336,46.51973028351564,11.496224212058191,0.0,1.0,0.0,0.0,0.0,0.0,0.0,0.0,0.0,0.0
1394659859644,2,4e308cddb61ce7c3b8419adf,46.517405,11.497575,46.51973028351564,11.496224212058191,0.0,0.0,0.0,0.0,0.0,0.0,0.0,0.0,1.0,0.0
1394659859644,178,4e3d4d901495bf24a5d8668a,46.51800300502386,11.503244833301897,46.51973028351564,11.50126238277818,1.0,0.0,0.0,0.0,0.0,0.0,0.0,0.0,0.0,0.0
1394659859644,62,4be1a8fb8dd062b5fe733e3c,46.518182632368,11.5030232574204,46.51973028351564,11.50126238277818,0.0,0.0,1.0,0.0,0.0,0.0,0.0,0.0,0.0,0.0
1394659859644,10,502f7849e4b0b5d01d24b6ca,46.51781465215361,11.501091119519025,46.51973028351564,11.50126238277818,0.0,1.0,0.0,0.0,0.0,0.0,0.0,0.0,0.0,0.0
1394659859644,1,521b846811d2272896886be4,46.517621,11.502596,46.51973028351564,11.50126238277818,0.0,0.0,0.0,0.0,0.0,0.0,0.0,1.0,0.0,0.0
1394659859644,4,5205f95a11d29b25b71743c6,46.518023206999814,11.502739128591491,46.51973028351564,11.50126238277818,0.0,0.0,1.0,0.0,0.0,0.0,0.0,0.0,0.0,0.0
1394659859644,19,4d1a01dc8312236acc8270ba,46.518427,11.503702,46.51973028351564,11.50126238277818,0.0,1.0,0.0,0.0,0.0,0.0,0.0,0.0,0.0,0.0
1394659859644,0,527ba39311d223ad0f801b42,46.52,11.5,46.51973028351564,11.50126238277818,0.0,1.0,0.0,0.0,0.0,0.0,0.0,0.0,0.0,0.0
1394659859644,6,4cd528d52944b1f7ce525bec,46.518453,11.503942,46.51973028351564,11.506300553498164,0.0,1.0,0.0,0.0,0.0,0.0,0.0,0.0,0.0,0.0
1394659859644,33,4fcb9147e4b09ba63bdb8f79,46.519052307182086,11.507634189632277,46.51973028351564,11.506300553498164,0.0,0.0,1.0,0.0,0.0,0.0,0.0,0.0,0.0,0.0
1394659859644,2,51420561e4b0ebd4e2525bcf,46.52120350458107,11.510965298113902,46.51973028351564,11.506300553498164,0.0,0.0,0.0,0.0,0.0,1.0,0.0,0.0,0.0,0.0
1394659859644,0,514204f0e4b09273bce23944,46.52120350458107,11.510965298113902,46.51973028351564,11.506300553498164,0.0,0.0,0.0,0.0,0.0,1.0,0.0,0.0,0.0,0.0
1394659859644,2,5208e1a111d2a651c2794ae0,46.517377,11.516419,46.51973028351564,11.516376894938137,0.0,0.0,1.0,0.0,0.0,0.0,0.0,0.0,0.0,0.0
1394659859644,4,50e9bd68e4b0674608486da3,46.52192964228222,11.521825522859933,46.51973028351564,11.521415065658125,0.0,1.0,0.0,0.0,0.0,0.0,0.0,0.0,0.0,0.0
1394659859644,35,501263c8e4b00c78e374b3e4,46.518909337707164,11.536163326856093,46.51973028351564,11.536529577818083,1.0,0.0,0.0,0.0,0.0,0.0,0.0,0.0,0.0,0.0
1394659859644,54,4c52aeff9d642d7fd55e9bdf,46.518915,11.536233,46.51973028351564,11.536529577818083,0.0,1.0,0.0,0.0,0.0,0.0,0.0,0.0,0.0,0.0
1394659859644,3,4c53f5b4fd2ea5939e8b4d29,46.52190944449403,11.583710098341887,46.51973028351564,11.581873114297963,0.0,1.0,0.0,0.0,0.0,0.0,0.0,0.0,0.0,0.0
1394659859644,3,4e6dd5bd1f6e39092ed9d690,46.519275,11.599446,46.51973028351564,11.59698762645792,1.0,0.0,0.0,0.0,0.0,0.0,0.0,0.0,0.0,0.0
1394659859644,51,4d89f2d5bc848cfa82d5cd2b,46.52122877440624,11.638918157752947,46.51973028351564,11.637292992217812,1.0,0.0,0.0,0.0,0.0,0.0,0.0,0.0,0.0,0.0
1394659859644,108,4c63118feb82d13a5bf406d6,46.520495,11.667016,46.51973028351564,11.667522016537731,0.0,1.0,0.0,0.0,0.0,0.0,0.0,0.0,0.0,0.0
1394659859644,6,520cb57b498e2d9e99667377,46.520286,11.667047,46.51973028351564,11.667522016537731,1.0,0.0,0.0,0.0,0.0,0.0,0.0,0.0,0.0,0.0
1394659859644,13,521c6fd711d20de8e0d11666,46.52035459736574,11.66589960855011,46.51973028351564,11.667522016537731,0.0,0.0,1.0,0.0,0.0,0.0,0.0,0.0,0.0,0.0
1394659859644,4,5006adc3e4b02fc71886e242,46.51901000574843,11.666684179032018,46.51973028351564,11.667522016537731,1.0,0.0,0.0,0.0,0.0,0.0,0.0,0.0,0.0,0.0
1394659859644,8,4c96673672dd224b021bac91,46.520583797673595,11.667183850203479,46.51973028351564,11.667522016537731,0.0,1.0,0.0,0.0,0.0,0.0,0.0,0.0,0.0,0.0
1394659859644,17,51ced9b4498ee7d5033616cc,46.51996671817661,11.723995227866919,46.51973028351564,11.722941894457584,0.0,0.0,1.0,0.0,0.0,0.0,0.0,0.0,0.0,0.0
1394659859644,43,4c555f10479fc928962cb494,46.52011381319992,11.723704569919901,46.51973028351564,11.722941894457584,1.0,0.0,0.0,0.0,0.0,0.0,0.0,0.0,0.0,0.0
1394659859644,10,4e2d6935d4c0e5c89ad881ef,46.51989556673142,11.723461186327969,46.51973028351564,11.722941894457584,0.0,0.0,1.0,0.0,0.0,0.0,0.0,0.0,0.0,0.0
1394659859644,39,4d231f182eb1f04dde8405c2,46.519362924639005,11.754727363586426,46.51973028351564,11.753170918777503,0.0,1.0,0.0,0.0,0.0,0.0,0.0,0.0,0.0,0.0
1394659859644,4,4e8470e61081cfa1e1b8f1d8,46.51567149278849,10.9279203414917,46.51498555051441,10.926910920699722,0.0,0.0,1.0,0.0,0.0,0.0,0.0,0.0,0.0,0.0
1394659859644,9,520e091f11d24680162a77a3,46.516261,10.942194,46.51498555051441,10.94202543285968,1.0,0.0,0.0,0.0,0.0,0.0,0.0,0.0,0.0,0.0
1394659859644,0,4e479f2db61c03d0cd1bfc5f,46.514013,11.03429,46.51498555051441,11.032712505819436,1.0,0.0,0.0,0.0,0.0,0.0,0.0,0.0,0.0,0.0
1394659859644,7,50d6128c498ee28294920a81,46.514246,11.227405,46.51498555051441,11.22920116389891,0.0,1.0,0.0,0.0,0.0,0.0,0.0,0.0,0.0,0.0
1394659859644,2,50728d83e4b08143e98940ef,46.517269134521484,11.251372337341309,46.51498555051441,11.249353846778856,0.0,0.0,0.0,0.0,0.0,0.0,0.0,0.0,1.0,0.0
1394659859644,22,4ea0bcf92c5be3cf8c3c772e,46.51282531023951,11.257420808793137,46.51498555051441,11.259430188218829,0.0,0.0,0.0,1.0,0.0,0.0,0.0,0.0,0.0,0.0
1394659859644,3,4e1ecb39887799f23ff217fa,46.513227,11.268135,46.51498555051441,11.269506529658802,0.0,0.0,0.0,0.0,0.0,0.0,0.0,0.0,1.0,0.0
1394659859644,1,4eadb439a17c199864e6f612,46.51432774934056,11.281113624572754,46.51498555051441,11.279582871098775,0.0,1.0,0.0,0.0,0.0,0.0,0.0,0.0,0.0,0.0
1394659859644,11,4f004c479adffb90cd6ad6f7,46.51290944330746,11.299550964952072,46.51498555051441,11.29973555397872,0.0,0.0,1.0,0.0,0.0,0.0,0.0,0.0,0.0,0.0
1394659859644,1,50d72cd6e4b0feaa50826f1b,46.515577,11.34494,46.51498555051441,11.345079090458597,0.0,0.0,0.0,1.0,0.0,0.0,0.0,0.0,0.0,0.0
1394659859644,1,51bc9a2b498e60d2c969875a,46.51707773581582,11.358729453925129,46.51498555051441,11.350117261178585,0.0,0.0,0.0,0.0,0.0,1.0,0.0,0.0,0.0,0.0
1394659859644,1,5155c8dbe4b0a360d1e3aa3a,46.51472231213539,11.357228266684173,46.51498555051441,11.35515543189857,0.0,0.0,1.0,0.0,0.0,0.0,0.0,0.0,0.0,0.0
1394659859644,127,4e50e265ae6051db8de0984b,46.5158316515373,11.358500523390589,46.51498555051441,11.360193602618558,0.0,0.0,0.0,0.0,0.0,0.0,0.0,1.0,0.0,0.0
1394659859644,2,508911c3e4b01b583fbe93d9,46.516136,11.358847,46.51498555051441,11.360193602618558,0.0,0.0,1.0,0.0,0.0,0.0,0.0,0.0,0.0,0.0
1394659859644,2,4ed004da7ee5be844abac70d,46.516033,11.358694,46.51498555051441,11.360193602618558,0.0,0.0,1.0,0.0,0.0,0.0,0.0,0.0,0.0,0.0
1394659859644,1,523eec6511d2a844f03aa2ee,46.5140305,11.42202597,46.51498555051441,11.420651651258396,1.0,0.0,0.0,0.0,0.0,0.0,0.0,0.0,0.0,0.0
1394659859644,10,4e69b594fa76cd0f76619f95,46.51795259058482,11.4468543281343,46.51498555051441,11.445842504858327,0.0,0.0,0.0,0.0,0.0,1.0,0.0,0.0,0.0,0.0
1394659859644,2,50a69de8e4b07223cf53fdb5,46.516239166259766,11.474125862121582,46.51498555051441,11.476071529178245,0.0,1.0,0.0,0.0,0.0,0.0,0.0,0.0,0.0,0.0
1394659859644,6,4fd0ea73e4b0a8fbe9e655ef,46.513699024876026,11.477633189221246,46.51498555051441,11.476071529178245,0.0,1.0,0.0,0.0,0.0,0.0,0.0,0.0,0.0,0.0
1394659859644,2,51f3f9c7498e159e5cd3baf4,46.516288,11.490723,46.51498555051441,11.491186041338207,0.0,1.0,0.0,0.0,0.0,0.0,0.0,0.0,0.0,0.0
1394659859644,13,4f3e9860e4b0de6b366925e0,46.51535579999813,11.49487478053338,46.51498555051441,11.496224212058191,0.0,0.0,1.0,0.0,0.0,0.0,0.0,0.0,0.0,0.0
1394659859644,3,50ea7f12e4b06ad5a2126798,46.516813476237836,11.49697727268983,46.51498555051441,11.496224212058191,1.0,0.0,0.0,0.0,0.0,0.0,0.0,0.0,0.0,0.0
1394659859644,1,50ea81eae4b0ce7486dbbfa4,46.516762,11.497926,46.51498555051441,11.496224212058191,0.0,0.0,0.0,0.0,0.0,0.0,0.0,1.0,0.0,0.0
1394659859644,1,509fd9d1e4b09c89235a59cf,46.51726283143562,11.49752220074313,46.51498555051441,11.496224212058191,0.0,1.0,0.0,0.0,0.0,0.0,0.0,0.0,0.0,0.0
1394659859644,11,5211a8e9498e083a4893c310,46.51725683416887,11.500260381043306,46.51498555051441,11.50126238277818,0.0,0.0,1.0,0.0,0.0,0.0,0.0,0.0,0.0,0.0
1394659859644,9,4f1361dee4b0d59e21fa97ad,46.517243,11.500372,46.51498555051441,11.50126238277818,0.0,0.0,0.0,0.0,1.0,0.0,0.0,0.0,0.0,0.0
1394659859644,6,5106b5a1e4b040a8987539c7,46.51729957903616,11.504799735658125,46.51498555051441,11.506300553498164,0.0,1.0,0.0,0.0,0.0,0.0,0.0,0.0,0.0,0.0
1394659859644,7,4df389f288772e1f81540e6e,46.517193,11.506061,46.51498555051441,11.506300553498164,0.0,0.0,1.0,0.0,0.0,0.0,0.0,0.0,0.0,0.0
1394659859644,3,5301093311d2964d7194e44d,46.517233,11.509002,46.51498555051441,11.511338724218152,0.0,0.0,0.0,0.0,0.0,1.0,0.0,0.0,0.0,0.0
1394659859644,5,4e4a341f18387418d6eb1ff5,46.514863,11.541212,46.51498555051441,11.541567748538071,1.0,0.0,0.0,0.0,0.0,0.0,0.0,0.0,0.0,0.0
1394659859644,1,52029296498e6692eb7c388f,46.517252,11.569034,46.51498555051441,11.566758602138002,1.0,0.0,0.0,0.0,0.0,0.0,0.0,0.0,0.0,0.0
1394659859644,12,4fdddf13e4b0b1923364941b,46.513796811013094,11.607439044759273,46.51498555051441,11.607063967897894,0.0,1.0,0.0,0.0,0.0,0.0,0.0,0.0,0.0,0.0
1394659859644,58,4d416f86bd53f04dcf504d15,46.51634445025774,11.646103798805624,46.51498555051441,11.647369333657785,1.0,0.0,0.0,0.0,0.0,0.0,0.0,0.0,0.0,0.0
1394659859644,56,4d40081e90f9224bad5c021e,46.51521115787723,11.68478005121765,46.51498555051441,11.682636528697692,0.0,1.0,0.0,0.0,0.0,0.0,0.0,0.0,0.0,0.0
1394659859644,4,4f5b3dc6e4b008b15619f78a,46.515098571777344,11.6849365234375,46.51498555051441,11.682636528697692,0.0,1.0,0.0,0.0,0.0,0.0,0.0,0.0,0.0,0.0
1394659859644,1,51443763e4b087df74de6898,46.51525,11.684828,46.51498555051441,11.682636528697692,0.0,1.0,0.0,0.0,0.0,0.0,0.0,0.0,0.0,0.0
1394659859644,6,51e68c2b498e634b5384cce3,46.513231,11.71641,46.51498555051441,11.717903723737596,1.0,0.0,0.0,0.0,0.0,0.0,0.0,0.0,0.0,0.0
1394659859644,1,5221dc3311d2ad37b8eab89d,46.513136,11.716383,46.51498555051441,11.717903723737596,1.0,0.0,0.0,0.0,0.0,0.0,0.0,0.0,0.0,0.0
1394659859644,45,4c557a0ef5f3d13a428bd6fb,46.51477726565586,11.739551178099807,46.51498555051441,11.738056406617542,1.0,0.0,0.0,0.0,0.0,0.0,0.0,0.0,0.0,0.0
1394659859644,113,4d29be08915fa0938ff0080a,46.51618325460551,11.75295593916194,46.51498555051441,11.753170918777503,1.0,0.0,0.0,0.0,0.0,0.0,0.0,0.0,0.0,0.0
1394659859644,2,4f6c52a0e4b0d4a5af68c834,46.5138,11.753,46.51498555051441,11.753170918777503,1.0,0.0,0.0,0.0,0.0,0.0,0.0,0.0,0.0,0.0
1394659859644,2,521f1b2711d20e0e7d5b3df1,46.516688,11.763758,46.51498555051441,11.763247260217476,1.0,0.0,0.0,0.0,0.0,0.0,0.0,0.0,0.0,0.0
1394659859644,1,50d6c86ee4b01e0c6952cf5c,46.514707,11.76374,46.51498555051441,11.763247260217476,1.0,0.0,0.0,0.0,0.0,0.0,0.0,0.0,0.0,0.0
1394659859644,15,4cade9ae8c48a09309fa6f2c,46.51189159404033,10.924196097107005,46.51024081751318,10.921872749979734,0.0,0.0,1.0,0.0,0.0,0.0,0.0,0.0,0.0,0.0
1394659859644,0,50c5119890e7cd380a221223,46.510060036090586,10.923757553100586,46.51024081751318,10.921872749979734,0.0,0.0,1.0,0.0,0.0,0.0,0.0,0.0,0.0,0.0
1394659859644,13,4efcd1119adf02fe6a9b003c,46.51072459133633,10.927142290843303,46.51024081751318,10.926910920699722,0.0,0.0,1.0,0.0,0.0,0.0,0.0,0.0,0.0,0.0
1394659859644,4,500d6d1fe4b08ffd5acc5511,46.51226344160611,11.050468374738617,46.51024081751318,11.052865188699382,1.0,0.0,0.0,0.0,0.0,0.0,0.0,0.0,0.0,0.0
1394659859644,2,5207953511d28da684589ede,46.51141,11.109448,46.51024081751318,11.108285066619235,0.0,1.0,0.0,0.0,0.0,0.0,0.0,0.0,0.0,0.0
1394659859644,1,520792c411d2396d091b5c88,46.51088236690875,11.109650626651096,46.51024081751318,11.108285066619235,0.0,0.0,0.0,0.0,0.0,0.0,0.0,0.0,1.0,0.0
1394659859644,3,520792b411d22e8e05c1052b,46.51128904807877,11.108965964887629,46.51024081751318,11.108285066619235,0.0,0.0,0.0,0.0,0.0,0.0,0.0,0.0,1.0,0.0
1394659859644,2,50d77837e4b0f43849633c21,46.51166825036393,11.108815317839465,46.51024081751318,11.108285066619235,0.0,0.0,1.0,0.0,0.0,0.0,0.0,0.0,0.0,0.0
1394659859644,3,4f462c6ce4b03c926b792534,46.511648473417814,11.109696263428903,46.51024081751318,11.108285066619235,1.0,0.0,0.0,0.0,0.0,0.0,0.0,0.0,0.0,0.0
1394659859644,3,507b126be4b08ed648802d13,46.50899813106693,11.109366118918938,46.51024081751318,11.108285066619235,0.0,0.0,0.0,0.0,0.0,0.0,0.0,0.0,1.0,0.0
1394659859644,1,4e21d03a1838712abe760d97,46.512128,11.244233,46.51024081751318,11.244315676058868,1.0,0.0,0.0,0.0,0.0,0.0,0.0,0.0,0.0,0.0
1394659859644,7,50c19e5ee4b01800251c5e68,46.509324499147745,11.264321556388273,46.51024081751318,11.264468358938814,0.0,0.0,1.0,0.0,0.0,0.0,0.0,0.0,0.0,0.0
1394659859644,2,4f23e7a6e4b04765791cafc7,46.508044,11.26565,46.51024081751318,11.264468358938814,0.0,0.0,1.0,0.0,0.0,0.0,0.0,0.0,0.0,0.0
1394659859644,26,4dac1c8993a04642f0a2878e,46.511486,11.273731,46.51024081751318,11.274544700378787,0.0,1.0,0.0,0.0,0.0,0.0,0.0,0.0,0.0,0.0
1394659859644,9,4f2fdf41e4b04551c26e7d18,46.51220213146375,11.275953653449356,46.51024081751318,11.274544700378787,0.0,1.0,0.0,0.0,0.0,0.0,0.0,0.0,0.0,0.0
1394659859644,5,4ddf3ac3d4c0935ddd5815e6,46.511647,11.272652,46.51024081751318,11.274544700378787,0.0,0.0,0.0,1.0,0.0,0.0,0.0,0.0,0.0,0.0
1394659859644,1,4f6de338e4b0e0075af8726c,46.510333,11.274819,46.51024081751318,11.274544700378787,0.0,0.0,0.0,0.0,1.0,0.0,0.0,0.0,0.0,0.0
1394659859644,14,4fe761b2e4b0972a1d90e346,46.50858509880774,11.279743325952854,46.51024081751318,11.279582871098775,0.0,0.0,1.0,0.0,0.0,0.0,0.0,0.0,0.0,0.0
1394659859644,6,4f5b6debe4b07fef0078297f,46.51198992088468,11.300380655476067,46.51024081751318,11.29973555397872,0.0,1.0,0.0,0.0,0.0,0.0,0.0,0.0,0.0,0.0
1394659859644,7,4d86016281fdb1f7eba01cc0,46.51153251223443,11.313964529774841,46.51024081751318,11.314850066138678,0.0,1.0,0.0,0.0,0.0,0.0,0.0,0.0,0.0,0.0
1394659859644,3,4ee382d2490138df8c487c61,46.51165002656366,11.314714022482807,46.51024081751318,11.314850066138678,0.0,1.0,0.0,0.0,0.0,0.0,0.0,0.0,0.0,0.0
1394659859644,5,51542ee6e4b001d409d57f8c,46.508981,11.326503,46.51024081751318,11.324926407578651,0.0,1.0,0.0,0.0,0.0,0.0,0.0,0.0,0.0,0.0
1394659859644,13,4e523b3ed22d41fba79e2eee,46.511652173071994,11.330093854110876,46.51024081751318,11.32996457829864,1.0,0.0,0.0,0.0,0.0,0.0,0.0,0.0,0.0,0.0
1394659859644,2,52c7f7b0498ef93dda87ba05,46.48950365732393,11.32844066277566,46.51024081751318,11.32996457829864,0.0,0.0,0.0,0.0,0.0,0.0,0.0,1.0,0.0,0.0
1394659859644,2,4f9f16efe4b0266cd86d9e74,46.508914892529305,11.342922899071079,46.51024081751318,11.340040919738613,0.0,0.0,0.0,0.0,0.0,1.0,0.0,0.0,0.0,0.0
1394659859644,26,4fb77268e4b07fc43124d707,46.50794248042007,11.343516576399072,46.51024081751318,11.345079090458597,0.0,0.0,0.0,0.0,0.0,0.0,1.0,0.0,0.0,0.0
1394659859644,5,515e71d8e4b0eb4ab55e857f,46.508312,11.34421,46.51024081751318,11.345079090458597,0.0,1.0,0.0,0.0,0.0,0.0,0.0,0.0,0.0,0.0
1394659859644,6,4e369b55b61cddd1cd49377c,46.5082971069065,11.344156265258789,46.51024081751318,11.345079090458597,0.0,1.0,0.0,0.0,0.0,0.0,0.0,0.0,0.0,0.0
1394659859644,2,4f9fcf30e4b09382e6fc260c,46.508914892529305,11.342922899071079,46.51024081751318,11.345079090458597,0.0,0.0,0.0,0.0,0.0,1.0,0.0,0.0,0.0,0.0
1394659859644,2,514ccc61e4b0ffdbfe8e64b8,46.5083543337779,11.343008279800415,46.51024081751318,11.345079090458597,1.0,0.0,0.0,0.0,0.0,0.0,0.0,0.0,0.0,0.0
1394659859644,2,5136fd7de4b0304432c0f9bd,46.508483,11.34412,46.51024081751318,11.345079090458597,0.0,0.0,0.0,1.0,0.0,0.0,0.0,0.0,0.0,0.0
1394659859644,1,50655c38498ef54a3f74d965,46.509456,11.344031,46.51024081751318,11.345079090458597,0.0,0.0,0.0,0.0,0.0,0.0,1.0,0.0,0.0,0.0
1394659859644,7,5155b300e4b0641ed2a4e542,46.51085347556495,11.350244362653113,46.51024081751318,11.350117261178585,1.0,0.0,0.0,0.0,0.0,0.0,0.0,0.0,0.0,0.0
1394659859644,11,4dc9169ec65baa09435c4b1c,46.50968,11.347936,46.51024081751318,11.350117261178585,0.0,1.0,0.0,0.0,0.0,0.0,0.0,0.0,0.0,0.0
1394659859644,3,4f2c3429e4b0ebf428dd6adc,46.509535916660845,11.351044878989683,46.51024081751318,11.350117261178585,0.0,0.0,0.0,0.0,1.0,0.0,0.0,0.0,0.0,0.0
1394659859644,38,4d9f27ad9bf0a35d73410a0b,46.50921,11.35072142,46.51024081751318,11.350117261178585,1.0,0.0,0.0,0.0,0.0,0.0,0.0,0.0,0.0,0.0
1394659859644,5,5094e3bde4b0d888967ee54f,46.510148,11.347784,46.51024081751318,11.350117261178585,0.0,1.0,0.0,0.0,0.0,0.0,0.0,0.0,0.0,0.0
1394659859644,4,5169751ce4b02c13d369deef,46.509295,11.350871,46.51024081751318,11.350117261178585,0.0,1.0,0.0,0.0,0.0,0.0,0.0,0.0,0.0,0.0
1394659859644,2,4f68b7d3e4b0cdd88fdf8937,46.512329,11.349953,46.51024081751318,11.350117261178585,0.0,0.0,1.0,0.0,0.0,0.0,0.0,0.0,0.0,0.0
1394659859644,4,4fb8ad80e4b0d09acd311826,46.51036518008059,11.34932362673805,46.51024081751318,11.350117261178585,0.0,0.0,0.0,0.0,0.0,0.0,0.0,1.0,0.0,0.0
1394659859644,3,4f5f8dd3e4b0ea7357bbf8d2,46.511617,11.349919,46.51024081751318,11.350117261178585,0.0,0.0,0.0,0.0,1.0,0.0,0.0,0.0,0.0,0.0
1394659859644,3,4e1714eaaeb7e76b4f23b816,46.509308,11.350777,46.51024081751318,11.350117261178585,0.0,0.0,0.0,0.0,0.0,0.0,0.0,0.0,1.0,0.0
1394659859644,0,516975b4e4b011552041b892,46.509253,11.350796,46.51024081751318,11.350117261178585,0.0,0.0,0.0,0.0,0.0,0.0,0.0,1.0,0.0,0.0
1394659859644,3,50255a4ee4b0d99c1a2eec97,46.508654,11.355009,46.51024081751318,11.35515543189857,1.0,0.0,0.0,0.0,0.0,0.0,0.0,0.0,0.0,0.0
1394659859644,4,4e1dc20b2271ff848fe99f33,46.5122023,11.38215099,46.51024081751318,11.380346285498504,0.0,0.0,1.0,0.0,0.0,0.0,0.0,0.0,0.0,0.0
1394659859644,2,4e11dbb5fa769d21e9f06ac3,46.512342,11.37982,46.51024081751318,11.380346285498504,0.0,0.0,0.0,0.0,0.0,0.0,0.0,0.0,1.0,0.0
1394659859644,13,4e208c44ae6015b2129c8662,46.508147979154025,11.398454187416652,46.51024081751318,11.40049896837845,0.0,1.0,0.0,0.0,0.0,0.0,0.0,0.0,0.0,0.0
1394659859644,11,4eb02312e30009a5443375bc,46.511654930086586,11.440489143133163,46.51024081751318,11.440804334138342,0.0,1.0,0.0,0.0,0.0,0.0,0.0,0.0,0.0,0.0
1394659859644,3,52b990ee498e97c252a404d9,46.51179504394531,11.443195343017578,46.51024081751318,11.440804334138342,1.0,0.0,0.0,0.0,0.0,0.0,0.0,0.0,0.0,0.0
1394659859644,11,500aa758e4b0fec2cd5ac09a,46.51188959327402,11.443311796912345,46.51024081751318,11.440804334138342,0.0,0.0,1.0,0.0,0.0,0.0,0.0,0.0,0.0,0.0
1394659859644,15,4e57ad8aa8096558610b772a,46.51203511077597,11.439116272305549,46.51024081751318,11.440804334138342,1.0,0.0,0.0,0.0,0.0,0.0,0.0,0.0,0.0,0.0
1394659859644,3,4e57bc1d7d8bf55c172c1f3c,46.510919,11.442485,46.51024081751318,11.440804334138342,1.0,0.0,0.0,0.0,0.0,0.0,0.0,0.0,0.0,0.0
1394659859644,0,4f0f049b0039a4c1989565c5,46.51199457739286,11.43925666809082,46.51024081751318,11.440804334138342,0.0,0.0,0.0,0.0,1.0,0.0,0.0,0.0,0.0,0.0
1394659859644,4,5210aa4911d29ea9c1381f86,46.50824667727903,11.45945661425504,46.51024081751318,11.460957017018288,0.0,0.0,1.0,0.0,0.0,0.0,0.0,0.0,0.0,0.0
1394659859644,3,4e6cafa3483b1f5ebe2c3cac,46.508335996207975,11.471198397666,46.51024081751318,11.47103335845826,0.0,1.0,0.0,0.0,0.0,0.0,0.0,0.0,0.0,0.0
1394659859644,1,526d0bce11d248b1c94c41f5,46.512278,11.475485,46.51024081751318,11.476071529178245,0.0,0.0,0.0,0.0,0.0,0.0,0.0,0.0,1.0,0.0
1394659859644,2,52c275c0498e870042d75c09,46.510738372802734,11.505870819091797,46.51024081751318,11.506300553498164,0.0,0.0,1.0,0.0,0.0,0.0,0.0,0.0,0.0,0.0
1394659859644,28,4e3a85ea88772c3bf122d1f1,46.50936658247322,11.653143273320302,46.51024081751318,11.652407504377774,0.0,1.0,0.0,0.0,0.0,0.0,0.0,0.0,0.0,0.0
1394659859644,33,4c95d5f8533aa09353bacc45,46.51115017873699,11.687707560532788,46.51024081751318,11.687674699417677,0.0,0.0,1.0,0.0,0.0,0.0,0.0,0.0,0.0,0.0
1394659859644,6,4e65e03952b1260c1491bc79,46.51226685260331,11.697122462880257,46.51024081751318,11.69775104085765,1.0,0.0,0.0,0.0,0.0,0.0,0.0,0.0,0.0,0.0
1394659859644,1,50eabb35e4b0688e530d99ef,46.51130676269531,11.742259979248047,46.51024081751318,11.74309457733753,1.0,0.0,0.0,0.0,0.0,0.0,0.0,0.0,0.0,0.0
1394659859644,83,4ef5f12b2c5b0445ff9e7145,46.50926896773754,11.754237354389065,46.51024081751318,11.753170918777503,1.0,0.0,0.0,0.0,0.0,0.0,0.0,0.0,0.0,0.0
1394659859644,11,4e1c0923887735dda33ef830,46.50913375,11.751705,46.51024081751318,11.753170918777503,0.0,0.0,1.0,0.0,0.0,0.0,0.0,0.0,0.0,0.0
1394659859644,606,4c5bdd257f661b8dd6f3461c,46.5098504773448,11.757756936462329,46.51024081751318,11.758209089497488,0.0,0.0,1.0,0.0,0.0,0.0,0.0,0.0,0.0,0.0
1394659859644,99,4e3d1e0c18a83d5b283f6a14,46.50918224301245,11.756934775045629,46.51024081751318,11.758209089497488,1.0,0.0,0.0,0.0,0.0,0.0,0.0,0.0,0.0,0.0
1394659859644,9,503b3891e4b03dc3d327af66,46.50996458719786,11.755708854710418,46.51024081751318,11.758209089497488,1.0,0.0,0.0,0.0,0.0,0.0,0.0,0.0,0.0,0.0
1394659859644,2,4e06349fd1640223a49504ec,46.509211746889285,11.756850969075455,46.51024081751318,11.758209089497488,0.0,0.0,1.0,0.0,0.0,0.0,0.0,0.0,0.0,0.0
1394659859644,48,50224761e4b0edf15a9f9734,46.50888223680228,11.828309348513644,46.51024081751318,11.828743479577298,1.0,0.0,0.0,0.0,0.0,0.0,0.0,0.0,0.0,0.0
1394659859644,4,4e464c2c45dd2955e5955bed,46.50892254958212,11.82835523229517,46.51024081751318,11.828743479577298,1.0,0.0,0.0,0.0,0.0,0.0,0.0,0.0,0.0,0.0
1394659859644,15,4e071a2e1838eb15aeff4c41,46.50888741016388,11.828209161758423,46.51024081751318,11.828743479577298,1.0,0.0,0.0,0.0,0.0,0.0,0.0,0.0,0.0,0.0
1394659859644,3,5210e22f11d214b0637a11d7,46.505929,10.918888,46.50549608451195,10.91683457925975,1.0,0.0,0.0,0.0,0.0,0.0,0.0,0.0,0.0,0.0
1394659859644,2,514600dee4b0c11f7fe8687f,46.507269,11.106046,46.50549608451195,11.108285066619235,0.0,1.0,0.0,0.0,0.0,0.0,0.0,0.0,0.0,0.0
1394659859644,12,4bba03c898c7ef3b70913202,46.504043345664165,11.228304858914553,46.50549608451195,11.22920116389891,0.0,0.0,1.0,0.0,0.0,0.0,0.0,0.0,0.0,0.0
1394659859644,2,4f998bbbe4b0d873b964de66,46.50753402709961,11.26382064819336,46.50549608451195,11.264468358938814,0.0,0.0,1.0,0.0,0.0,0.0,0.0,0.0,0.0,0.0
1394659859644,70,4def9ed6887754a6af9727af,46.50649727559936,11.278260735436618,46.50549608451195,11.279582871098775,0.0,0.0,1.0,0.0,0.0,0.0,0.0,0.0,0.0,0.0
1394659859644,4,50333a22e4b0412b0fed1842,46.507111714884836,11.285260405049788,46.50549608451195,11.28462104181876,0.0,0.0,0.0,0.0,1.0,0.0,0.0,0.0,0.0,0.0
1394659859644,1,525d586f11d206676f78e478,46.50642395019531,11.286932945251465,46.50549608451195,11.28462104181876,0.0,0.0,0.0,0.0,1.0,0.0,0.0,0.0,0.0,0.0
1394659859644,1,522891c711d20bc06f9bf629,46.50538422053485,11.286743985220514,46.50549608451195,11.28462104181876,0.0,0.0,1.0,0.0,0.0,0.0,0.0,0.0,0.0,0.0
1394659859644,3,50e08152e4b05f459fadccb4,46.503735558180544,11.288582596078914,46.50549608451195,11.289659212538748,0.0,0.0,0.0,0.0,0.0,1.0,0.0,0.0,0.0,0.0
1394659859644,77,4c6859b45fae20a1635d49a6,46.5032066386368,11.29893872501655,46.50549608451195,11.29973555397872,1.0,0.0,0.0,0.0,0.0,0.0,0.0,0.0,0.0,0.0
1394659859644,1,52179ccf11d24889a7254534,46.50338178138049,11.299525842148196,46.50549608451195,11.29973555397872,0.0,1.0,0.0,0.0,0.0,0.0,0.0,0.0,0.0,0.0
1394659859644,5,502bf770582f9568c893f455,46.50334029282999,11.322956085205078,46.50549608451195,11.324926407578651,0.0,0.0,0.0,0.0,1.0,0.0,0.0,0.0,0.0,0.0
1394659859644,4,4d8c9049fa943704d73dd2c5,46.50075066974572,11.327127243148611,46.50549608451195,11.324926407578651,0.0,0.0,0.0,0.0,0.0,1.0,0.0,0.0,0.0,0.0
1394659859644,4,4d793db1b706224b4db6358d,46.50075066974572,11.327127243148611,46.50549608451195,11.324926407578651,0.0,0.0,0.0,0.0,0.0,1.0,0.0,0.0,0.0,0.0
1394659859644,24,5020f5f1e4b0e7d90bb29e46,46.50466179416075,11.329684477030316,46.50549608451195,11.32996457829864,0.0,0.0,0.0,0.0,0.0,1.0,0.0,0.0,0.0,0.0
1394659859644,4,512dc744e4b022646950b984,46.50390786726171,11.327646534920884,46.50549608451195,11.32996457829864,0.0,0.0,0.0,0.0,0.0,0.0,0.0,0.0,1.0,0.0
1394659859644,16,4ee0d398722e103a029f2616,46.505829034624554,11.332002433017667,46.50549608451195,11.32996457829864,1.0,0.0,0.0,0.0,0.0,0.0,0.0,0.0,0.0,0.0
1394659859644,23,4f428f16e4b0daed4517bd9f,46.50075066974572,11.327127243148611,46.50549608451195,11.32996457829864,0.0,0.0,0.0,0.0,0.0,1.0,0.0,0.0,0.0,0.0
1394659859644,33,4f1067e1e4b0fd294d3f2244,46.50075066974572,11.327127243148611,46.50549608451195,11.32996457829864,0.0,0.0,0.0,0.0,0.0,1.0,0.0,0.0,0.0,0.0
1394659859644,33,4f10799ce4b000502afa3ecd,46.50075066974572,11.327127243148611,46.50549608451195,11.32996457829864,0.0,0.0,0.0,0.0,0.0,1.0,0.0,0.0,0.0,0.0
1394659859644,3,4dde1b1752b155583df9e714,46.503322587951395,11.331468979364102,46.50549608451195,11.32996457829864,0.0,0.0,0.0,0.0,0.0,0.0,0.0,0.0,1.0,0.0
1394659859644,1,4f17b552e4b0242770b3d7b8,46.50334875492862,11.330336062824806,46.50549608451195,11.32996457829864,0.0,0.0,0.0,0.0,0.0,0.0,1.0,0.0,0.0,0.0
1394659859644,2,4cad022d14c33704bf3bf53b,46.50075066974572,11.327127243148611,46.50549608451195,11.32996457829864,0.0,0.0,0.0,0.0,0.0,1.0,0.0,0.0,0.0,0.0
1394659859644,9,4e9467dd77c82b6a71ed2100,46.50326026702773,11.334088416739503,46.50549608451195,11.335002749018624,0.0,1.0,0.0,0.0,0.0,0.0,0.0,0.0,0.0,0.0
1394659859644,41,50688156e4b062f08fc01cc1,46.508914892529305,11.342922899071079,46.50549608451195,11.335002749018624,0.0,0.0,0.0,0.0,0.0,1.0,0.0,0.0,0.0,0.0
1394659859644,1,52dea6e9498e8f488dadc0cb,46.504459381103516,11.336271286010742,46.50549608451195,11.335002749018624,0.0,0.0,0.0,0.0,0.0,0.0,1.0,0.0,0.0,0.0
1394659859644,74,4c924dbc7f3b8cfa0c09a41e,46.50349695792752,11.334093230295089,46.50549608451195,11.335002749018624,0.0,1.0,0.0,0.0,0.0,0.0,0.0,0.0,0.0,0.0
1394659859644,5,515bed49e4b015618d5644d7,46.503335,11.33528,46.50549608451195,11.335002749018624,0.0,1.0,0.0,0.0,0.0,0.0,0.0,0.0,0.0,0.0
1394659859644,4,515aec35e4b0fbffb7843bb4,46.504462490369825,11.333233875252423,46.50549608451195,11.335002749018624,0.0,0.0,0.0,0.0,0.0,0.0,0.0,0.0,1.0,0.0
1394659859644,60,4cf0c3f388de3704470c6e2b,46.50387115767892,11.334783254386213,46.50549608451195,11.335002749018624,0.0,0.0,0.0,0.0,0.0,0.0,1.0,0.0,0.0,0.0
1394659859644,15,5093c460e4b0f7ee4a64a369,46.503781,11.334012,46.50549608451195,11.335002749018624,0.0,1.0,0.0,0.0,0.0,0.0,0.0,0.0,0.0,0.0
1394659859644,2,51570279e4b08b1cd8da84ef,46.504236061856915,11.336779744494821,46.50549608451195,11.335002749018624,0.0,0.0,0.0,0.0,0.0,0.0,0.0,0.0,1.0,0.0
1394659859644,6,4ce9148fb99754816e480045,46.50484617631893,11.333656952616446,46.50549608451195,11.335002749018624,1.0,0.0,0.0,0.0,0.0,0.0,0.0,0.0,0.0,0.0
1394659859644,2,51835be0498e578a458a9ede,46.505938,11.336555,46.50549608451195,11.335002749018624,0.0,0.0,0.0,1.0,0.0,0.0,0.0,0.0,0.0,0.0
1394659859644,2,515e7803e4b0fd9ec8705570,46.505772,11.336968,46.50549608451195,11.335002749018624,0.0,0.0,0.0,0.0,1.0,0.0,0.0,0.0,0.0,0.0
1394659859644,22,4e3fa449c65b4ec275feba06,46.5063321633767,11.334607460739097,46.50549608451195,11.335002749018624,0.0,0.0,0.0,0.0,0.0,0.0,0.0,0.0,1.0,0.0
1394659859644,1,517fee6a498ef35649c84f54,46.505574,11.336498,46.50549608451195,11.335002749018624,0.0,0.0,0.0,1.0,0.0,0.0,0.0,0.0,0.0,0.0
1394659859644,1,509d3906e4b0bae034d85d10,46.50637,11.336956,46.50549608451195,11.335002749018624,0.0,0.0,0.0,0.0,0.0,0.0,1.0,0.0,0.0,0.0
1394659859644,2,4e9fe5e602d54bd975c036d3,46.503936,11.334228,46.50549608451195,11.335002749018624,0.0,0.0,0.0,0.0,0.0,0.0,0.0,0.0,1.0,0.0
1394659859644,2,4f57afd0e4b03aa91e123c3d,46.505055046740196,11.33449247143102,46.50549608451195,11.335002749018624,0.0,0.0,0.0,0.0,0.0,0.0,0.0,0.0,1.0,0.0
1394659859644,2,4fc3c2d8e4b09b4ea9e522c9,46.50075066974572,11.327127243148611,46.50549608451195,11.335002749018624,0.0,0.0,0.0,0.0,0.0,1.0,0.0,0.0,0.0,0.0
1394659859644,1,4fab7355e4b042012828ccd8,46.50509057570994,11.337465168107052,46.50549608451195,11.335002749018624,0.0,0.0,0.0,0.0,0.0,0.0,0.0,0.0,1.0,0.0
1394659859644,1,4ee5ac250aaf893950fbea27,46.50661696935452,11.335808959687277,46.50549608451195,11.335002749018624,0.0,0.0,0.0,0.0,0.0,0.0,0.0,0.0,1.0,0.0
1394659859644,1,4ec381959a524f6c47504d18,46.506092,11.335421,46.50549608451195,11.335002749018624,0.0,0.0,0.0,0.0,0.0,0.0,0.0,0.0,1.0,0.0
1394659859644,1,4cf199a0e3b9a093ceb43f53,46.503563,11.334251,46.50549608451195,11.335002749018624,0.0,0.0,0.0,1.0,0.0,0.0,0.0,0.0,0.0,0.0
1394659859644,2,4de26ddbd4c07044056b5827,46.5031539,11.33560923,46.50549608451195,11.335002749018624,0.0,1.0,0.0,0.0,0.0,0.0,0.0,0.0,0.0,0.0
1394659859644,5,4c8e522bb3bcb60cc5865827,46.5052743,11.333808,46.50549608451195,11.335002749018624,0.0,0.0,0.0,0.0,0.0,0.0,0.0,0.0,1.0,0.0
1394659859644,11,4f5dc2cae4b01014bbe79ff2,46.50463234772981,11.342377650551342,46.50549608451195,11.340040919738613,0.0,0.0,0.0,0.0,0.0,0.0,0.0,0.0,1.0,0.0
1394659859644,13,524525c111d27d73e40b9223,46.503418164429306,11.341946384821421,46.50549608451195,11.340040919738613,0.0,0.0,0.0,0.0,0.0,0.0,1.0,0.0,0.0,0.0
1394659859644,29,4f575173e4b01d8a92eb6cfb,46.50456468440964,11.33972351395483,46.50549608451195,11.340040919738613,0.0,0.0,0.0,0.0,0.0,0.0,1.0,0.0,0.0,0.0
1394659859644,26,4f5a1383e4b0aaabf4d06bef,46.505848370912304,11.3382739971102,46.50549608451195,11.340040919738613,1.0,0.0,0.0,0.0,0.0,0.0,0.0,0.0,0.0,0.0
1394659859644,1,52d4f00a498eb66ec0a2c9be,46.507625,11.341233,46.50549608451195,11.340040919738613,0.0,0.0,1.0,0.0,0.0,0.0,0.0,0.0,0.0,0.0
1394659859644,14,513a31bfe4b055cc526f99c1,46.506764326539276,11.338665316502466,46.50549608451195,11.340040919738613,0.0,0.0,0.0,0.0,1.0,0.0,0.0,0.0,0.0,0.0
1394659859644,7,51010560e4b005e6b3625c7a,46.50654,11.339254,46.50549608451195,11.340040919738613,0.0,0.0,0.0,0.0,0.0,0.0,0.0,0.0,1.0,0.0
1394659859644,2,5184ad09498e233a6c74c161,46.503391,11.342154,46.50549608451195,11.340040919738613,0.0,1.0,0.0,0.0,0.0,0.0,0.0,0.0,0.0,0.0
1394659859644,11,4e1f36fbd4c0fc6e34407fdb,46.503509521484375,11.341798782348633,46.50549608451195,11.340040919738613,0.0,1.0,0.0,0.0,0.0,0.0,0.0,0.0,0.0,0.0
1394659859644,3,517bed7e498ea18af0216ad0,46.505579,11.338553,46.50549608451195,11.340040919738613,0.0,1.0,0.0,0.0,0.0,0.0,0.0,0.0,0.0,0.0
1394659859644,11,4da1ab7b0f578cfa1f029118,46.50347003260516,11.339823230548463,46.50549608451195,11.340040919738613,0.0,0.0,0.0,0.0,0.0,0.0,0.0,0.0,1.0,0.0
1394659859644,3,4eb9296929c212fb6df4929a,46.507222,11.34245,46.50549608451195,11.340040919738613,0.0,0.0,0.0,0.0,0.0,0.0,0.0,0.0,1.0,0.0
1394659859644,102,4eefabce722e51a8d68bacc2,46.508914892529305,11.342922899071079,46.50549608451195,11.340040919738613,0.0,0.0,0.0,0.0,0.0,1.0,0.0,0.0,0.0,0.0
1394659859644,2,4f8e6161e4b019b497498ba5,46.506619,11.339353,46.50549608451195,11.340040919738613,0.0,0.0,0.0,0.0,0.0,0.0,0.0,0.0,1.0,0.0
1394659859644,2,4fe5d8b8e4b0f0c8f2f2f1c6,46.508914892529305,11.342922899071079,46.50549608451195,11.340040919738613,0.0,0.0,0.0,0.0,0.0,1.0,0.0,0.0,0.0,0.0
1394659859644,7,4de8b76c1838b9ad8d149ff1,46.506843,11.339133,46.50549608451195,11.340040919738613,0.0,1.0,0.0,0.0,0.0,0.0,0.0,0.0,0.0,0.0
1394659859644,3,4eefa5b8775b3c580ffb3b37,46.503165,11.341186,46.50549608451195,11.340040919738613,0.0,0.0,0.0,0.0,0.0,0.0,0.0,0.0,1.0,0.0
1394659859644,1,4f59e347e4b0a5edd0394e03,46.50680399877263,11.339125201152019,46.50549608451195,11.340040919738613,0.0,0.0,0.0,1.0,0.0,0.0,0.0,0.0,0.0,0.0
1394659859644,0,4f4de36fe4b0ef284ba92239,46.50643539428711,11.338788986206055,46.50549608451195,11.340040919738613,0.0,0.0,0.0,0.0,0.0,0.0,0.0,0.0,1.0,0.0
1394659859644,2,4dc5bbccae608779d14397f2,46.504787,11.341264,46.50549608451195,11.340040919738613,0.0,1.0,0.0,0.0,0.0,0.0,0.0,0.0,0.0,0.0
1394659859644,1,4e71d0e6aeb79ea09519598a,46.50355911254883,11.339296340942383,46.50549608451195,11.340040919738613,0.0,0.0,0.0,0.0,0.0,0.0,1.0,0.0,0.0,0.0
1394659859644,11,529d85d911d27fc46a25c37f,46.507298459848705,11.342899231669557,46.50549608451195,11.345079090458597,0.0,0.0,0.0,0.0,0.0,0.0,0.0,0.0,1.0,0.0
1394659859644,87,4db4975b93a017099ddc276c,46.50439483847016,11.345900032945325,46.50549608451195,11.345079090458597,0.0,0.0,0.0,0.0,0.0,0.0,0.0,0.0,1.0,0.0
1394659859644,33,4d1bad641356224b661e09be,46.505088055243974,11.345026782313328,46.50549608451195,11.345079090458597,1.0,0.0,0.0,0.0,0.0,0.0,0.0,0.0,0.0,0.0
1394659859644,5,4f548affe4b02d0eb5b0fc0e,46.50462379908075,11.346396456186177,46.50549608451195,11.345079090458597,0.0,0.0,0.0,0.0,0.0,0.0,1.0,0.0,0.0,0.0
1394659859644,15,4eb5058877c8972736d9c12f,46.50517496854724,11.345317730189322,46.50549608451195,11.345079090458597,1.0,0.0,0.0,0.0,0.0,0.0,0.0,0.0,0.0,0.0
1394659859644,10,5136f26ae4b0dfb1b359d3cb,46.507077,11.342561,46.50549608451195,11.345079090458597,0.0,0.0,0.0,0.0,0.0,0.0,0.0,0.0,1.0,0.0
1394659859644,29,4cbc88b74352a1cd06d69ef5,46.50400747,11.34532329,46.50549608451195,11.345079090458597,0.0,0.0,0.0,0.0,0.0,0.0,0.0,0.0,1.0,0.0
1394659859644,1,5188b835498e33fb7e5dad98,46.504156,11.346238,46.50549608451195,11.345079090458597,1.0,0.0,0.0,0.0,0.0,0.0,0.0,0.0,0.0,0.0
1394659859644,2,4f6c9c90e4b08a0bb95de08e,46.507189,11.34713,46.50549608451195,11.345079090458597,0.0,0.0,1.0,0.0,0.0,0.0,0.0,0.0,0.0,0.0
1394659859644,33,4cf93c75e8e25481c312dc62,46.508914892529305,11.342922899071079,46.50549608451195,11.345079090458597,0.0,0.0,0.0,0.0,0.0,1.0,0.0,0.0,0.0,0.0
1394659859644,5,4f190fede4b0cfc595bebca2,46.504506657616375,11.345743869419906,46.50549608451195,11.345079090458597,0.0,0.0,0.0,0.0,0.0,0.0,1.0,0.0,0.0,0.0
1394659859644,3,4f6068a8e4b071906c273874,46.503977622541704,11.346487219064187,46.50549608451195,11.345079090458597,0.0,1.0,0.0,0.0,0.0,0.0,0.0,0.0,0.0,0.0
1394659859644,2,4f9c3f62e4b0f1efa7f54557,46.5046,11.346602,46.50549608451195,11.345079090458597,0.0,0.0,1.0,0.0,0.0,0.0,0.0,0.0,0.0,0.0
1394659859644,0,4f75cc64e4b054a7063c7c8b,46.504687,11.34518,46.50549608451195,11.345079090458597,0.0,0.0,0.0,0.0,0.0,0.0,0.0,1.0,0.0,0.0
1394659859644,11,4e81efdb4690931ec0b15283,46.50602195162203,11.34693776430196,46.50549608451195,11.345079090458597,0.0,0.0,0.0,0.0,0.0,0.0,1.0,0.0,0.0,0.0
1394659859644,0,4f171e93e4b038020858e8b0,46.5041777,11.3466769,46.50549608451195,11.345079090458597,1.0,0.0,0.0,0.0,0.0,0.0,0.0,0.0,0.0,0.0
1394659859644,1,4f09bc5fe4b0671f28eb3692,46.508914892529305,11.342922899071079,46.50549608451195,11.345079090458597,0.0,0.0,0.0,0.0,0.0,1.0,0.0,0.0,0.0,0.0
1394659859644,3,4dabd4850cb6a89c628b634a,46.50447,11.346586,46.50549608451195,11.345079090458597,0.0,0.0,0.0,0.0,0.0,0.0,0.0,0.0,1.0,0.0
1394659859644,55,4ebfd4a5d3e3700a5b89f440,46.50327882106714,11.350452657287867,46.50549608451195,11.350117261178585,0.0,0.0,0.0,0.0,0.0,0.0,0.0,1.0,0.0,0.0
1394659859644,149,4f9c107ce4b04f3d090e52fd,46.50521653597582,11.349938824862583,46.50549608451195,11.350117261178585,1.0,0.0,0.0,0.0,0.0,0.0,0.0,0.0,0.0,0.0
1394659859644,5,4f51e1f0e4b09f74b6f761e9,46.504038361253656,11.349727434857416,46.50549608451195,11.350117261178585,0.0,0.0,0.0,0.0,1.0,0.0,0.0,0.0,0.0,0.0
1394659859644,19,4cc3213138aaa0938ed70a62,46.50321090099554,11.35070345662658,46.50549608451195,11.350117261178585,0.0,0.0,0.0,1.0,0.0,0.0,0.0,0.0,0.0,0.0
1394659859644,25,4e5c987e18a8a75fa27178a6,46.504299,11.349794,46.50549608451195,11.350117261178585,0.0,1.0,0.0,0.0,0.0,0.0,0.0,0.0,0.0,0.0
1394659859644,18,4e2590a462e12f2b95e8ece0,46.503827,11.349015,46.50549608451195,11.350117261178585,1.0,0.0,0.0,0.0,0.0,0.0,0.0,0.0,0.0,0.0
1394659859644,1,5116b1f5e4b0f9aea429b28e,46.506309,11.35259,46.50549608451195,11.350117261178585,1.0,0.0,0.0,0.0,0.0,0.0,0.0,0.0,0.0,0.0
1394659859644,1,518e3932498e91ed8f632345,46.506081,11.347703,46.50549608451195,11.350117261178585,0.0,0.0,0.0,0.0,0.0,0.0,0.0,1.0,0.0,0.0
1394659859644,1,518529f9498ebaa83a1cd3ee,46.507805,11.34811,46.50549608451195,11.350117261178585,1.0,0.0,0.0,0.0,0.0,0.0,0.0,0.0,0.0,0.0
1394659859644,1,511d0917e4b03c1e6942b349,46.50437185225706,11.34920119498353,46.50549608451195,11.350117261178585,0.0,0.0,0.0,0.0,1.0,0.0,0.0,0.0,0.0,0.0
1394659859644,1,504c86aee4b015de62617c29,46.50582,11.350057,46.50549608451195,11.350117261178585,1.0,0.0,0.0,0.0,0.0,0.0,0.0,0.0,0.0,0.0
1394659859644,2,4ff73659e4b0211bc2ac77a7,46.505577,11.350033,46.50549608451195,11.350117261178585,0.0,0.0,0.0,0.0,0.0,0.0,0.0,1.0,0.0,0.0
1394659859644,30,4ea874cbe5fa276e766183c6,46.5077085375391,11.354960564907696,46.50549608451195,11.350117261178585,0.0,0.0,0.0,0.0,0.0,1.0,0.0,0.0,0.0,0.0
1394659859644,3,4e5cb3ed62e1ef715a4f56d8,46.505782,11.352535,46.50549608451195,11.350117261178585,0.0,0.0,0.0,0.0,0.0,0.0,0.0,0.0,1.0,0.0
1394659859644,9,4dd6c4a8e4cd37c8939b1093,46.505665,11.349814,46.50549608451195,11.350117261178585,0.0,0.0,0.0,0.0,0.0,0.0,0.0,1.0,0.0,0.0
1394659859644,1,4decb82be4cdc079f4bc57d1,46.507225,11.34809,46.50549608451195,11.350117261178585,1.0,0.0,0.0,0.0,0.0,0.0,0.0,0.0,0.0,0.0
1394659859644,2,4e95c26fb8f73812d0a1ab38,46.503628,11.356516,46.50549608451195,11.35515543189857,0.0,0.0,1.0,0.0,0.0,0.0,0.0,0.0,0.0,0.0
1394659859644,237,5055af6ee4b017bb26b17238,46.5077085375391,11.354960564907696,46.50549608451195,11.35515543189857,0.0,0.0,0.0,0.0,0.0,1.0,0.0,0.0,0.0,0.0
1394659859644,1,5294b42611d21cf9d4e66ab5,46.503887,11.35599,46.50549608451195,11.35515543189857,0.0,0.0,0.0,0.0,0.0,0.0,0.0,0.0,1.0,0.0
1394659859644,5,50f57cd6e4b0ebcba5f3a544,46.505317,11.353143,46.50549608451195,11.35515543189857,0.0,0.0,0.0,0.0,1.0,0.0,0.0,0.0,0.0,0.0
1394659859644,16,4d878481d5fab60c9d68209c,46.505309,11.354391,46.50549608451195,11.35515543189857,0.0,1.0,0.0,0.0,0.0,0.0,0.0,0.0,0.0,0.0
1394659859644,1,501fc8afe4b0597c4b5e1eb7,46.50621795654297,11.35383129119873,46.50549608451195,11.35515543189857,0.0,0.0,1.0,0.0,0.0,0.0,0.0,0.0,0.0,0.0
1394659859644,1,501fc80ae4b0a7e9a8393e4b,46.50412368774414,11.356217384338379,46.50549608451195,11.35515543189857,0.0,0.0,1.0,0.0,0.0,0.0,0.0,0.0,0.0,0.0
1394659859644,1,4e084488d4c03ae0b9cecce0,46.507818,11.355203,46.50549608451195,11.35515543189857,0.0,0.0,0.0,0.0,0.0,0.0,0.0,0.0,1.0,0.0
1394659859644,0,4ed692bbd3e36f47eb0d402c,46.5077085375391,11.354960564907696,46.50549608451195,11.35515543189857,0.0,0.0,0.0,0.0,0.0,1.0,0.0,0.0,0.0,0.0
1394659859644,0,4eaac47f77c850207ee8f27e,46.503373,11.354648,46.50549608451195,11.35515543189857,0.0,0.0,0.0,0.0,1.0,0.0,0.0,0.0,0.0,0.0
1394659859644,142,4e34357f1f6efba2411f621b,46.50458961320631,11.358861119272094,46.50549608451195,11.360193602618558,1.0,0.0,0.0,0.0,0.0,0.0,0.0,0.0,0.0,0.0
1394659859644,2,52d5355d498eaa6bfff0b0bb,46.504618929696996,11.359440829190858,46.50549608451195,11.360193602618558,0.0,0.0,1.0,0.0,0.0,0.0,0.0,0.0,0.0,0.0
1394659859644,153,4bd762fb304fce728d7c33ab,46.503437042236,11.368940353394,46.50549608451195,11.370269944058531,0.0,0.0,1.0,0.0,0.0,0.0,0.0,0.0,0.0,0.0
1394659859644,2,51790a99e4b0329bfea161d9,46.50647735595703,11.410126686096191,46.50549608451195,11.410575309818423,0.0,1.0,0.0,0.0,0.0,0.0,0.0,0.0,0.0,0.0
1394659859644,7,5017f2d4e4b0a0721fb4a59c,46.50588989257812,11.42925643920898,46.50549608451195,11.430727992698369,0.0,0.0,0.0,0.0,1.0,0.0,0.0,0.0,0.0,0.0
1394659859644,61,4d1f269ed7b0b1f7bda30a9f,46.504045221771804,11.458198962955509,46.50549608451195,11.4559188462983,0.0,0.0,1.0,0.0,0.0,0.0,0.0,0.0,0.0,0.0
1394659859644,9,4f744959e4b08bc8e417fd55,46.50527305666083,11.466935816579785,46.50549608451195,11.465995187738272,0.0,1.0,0.0,0.0,0.0,0.0,0.0,0.0,0.0,0.0
1394659859644,1,52ffca7a11d29a585dda2384,46.503496,11.49704,46.50549608451195,11.496224212058191,0.0,1.0,0.0,0.0,0.0,0.0,0.0,0.0,0.0,0.0
1394659859644,25,4c5a8f5b5c57c9b60a7e1d4a,46.50526825948382,11.496062758749535,46.50549608451195,11.496224212058191,1.0,0.0,0.0,0.0,0.0,0.0,0.0,0.0,0.0,0.0
1394659859644,10,4fcb665de4b0e33fd4c2ff10,46.504983696915204,11.496302441482525,46.50549608451195,11.496224212058191,0.0,0.0,0.0,0.0,0.0,0.0,0.0,1.0,0.0,0.0
1394659859644,0,4fcfaf52e4b0f6d5281f422d,46.5037,11.5186,46.50549608451195,11.516376894938137,0.0,0.0,0.0,0.0,0.0,0.0,1.0,0.0,0.0,0.0
1394659859644,31,4e3aae74e4cdcd1068439aac,46.50536998214358,11.534868399169724,46.50549608451195,11.536529577818083,0.0,0.0,1.0,0.0,0.0,0.0,0.0,0.0,0.0,0.0
1394659859644,6,5049c599e4b0f680c866a745,46.505441,11.535296,46.50549608451195,11.536529577818083,0.0,1.0,0.0,0.0,0.0,0.0,0.0,0.0,0.0,0.0
1394659859644,3,517a555ae4b0ca4f07dbe451,46.50532608075258,11.534924999292704,46.50549608451195,11.536529577818083,1.0,0.0,0.0,0.0,0.0,0.0,0.0,0.0,0.0,0.0
1394659859644,4,500fbd7ce4b0b1bc5e486bd5,46.50729895543568,11.574916998087582,46.50549608451195,11.576834943577975,1.0,0.0,0.0,0.0,0.0,0.0,0.0,0.0,0.0,0.0
1394659859644,27,4c5999acd3aee21e12956855,46.50732331430974,11.574347530360074,46.50549608451195,11.576834943577975,0.0,1.0,0.0,0.0,0.0,0.0,0.0,0.0,0.0,0.0
1394659859644,37,4e3b89061f6e844231cbdf54,46.50742188289822,11.574565492864483,46.50549608451195,11.576834943577975,1.0,0.0,0.0,0.0,0.0,0.0,0.0,0.0,0.0,0.0
1394659859644,83,4c61204d3986e21ec3cd954f,46.504582,11.700842,46.50549608451195,11.702789211577638,1.0,0.0,0.0,0.0,0.0,0.0,0.0,0.0,0.0,0.0
1394659859644,5,51d69692498ee77b0d1ad953,46.50474601196974,11.700595598434143,46.50549608451195,11.702789211577638,1.0,0.0,0.0,0.0,0.0,0.0,0.0,0.0,0.0,0.0
1394659859644,29,50e6c09be4b002e73c95418c,46.50354404698189,11.749695594221489,46.50549608451195,11.748132748057515,0.0,1.0,0.0,0.0,0.0,0.0,0.0,0.0,0.0,0.0
1394659859644,14,50e5802de4b018da060a61fb,46.50344333985046,11.749625532774056,46.50549608451195,11.748132748057515,0.0,1.0,0.0,0.0,0.0,0.0,0.0,0.0,0.0,0.0
1394659859644,1,51603349e4b003de2ee196ae,46.50347,11.749734,46.50549608451195,11.748132748057515,1.0,0.0,0.0,0.0,0.0,0.0,0.0,0.0,0.0,0.0
1394659859644,326,4d8333d28de9721e4bb11651,46.503564715457685,11.752206922605264,46.50549608451195,11.753170918777503,1.0,0.0,0.0,0.0,0.0,0.0,0.0,0.0,0.0,0.0
1394659859644,12,4c2e2eeae307d13ad7180fda,46.505334149477804,11.772880554199219,46.50549608451195,11.773323601657449,0.0,0.0,1.0,0.0,0.0,0.0,0.0,0.0,0.0,0.0
1394659859644,12,4e9c1e70dab4d1d4acba6af9,46.501976,11.033072,46.500751351510715,11.032712505819436,1.0,0.0,0.0,0.0,0.0,0.0,0.0,0.0,0.0,0.0
1394659859644,11,4e47c783e4cd9d94fb339d63,46.501663041232405,11.037989206956874,46.500751351510715,11.037750676539424,0.0,1.0,0.0,0.0,0.0,0.0,0.0,0.0,0.0,0.0
1394659859644,4,4ea412698231f6dc6ab30e40,46.502690380280946,11.28995280062217,46.500751351510715,11.289659212538748,1.0,0.0,0.0,0.0,0.0,0.0,0.0,0.0,0.0,0.0
1394659859644,1,4d1a21a16d103704bae54cbd,46.503154596592864,11.303066176212013,46.500751351510715,11.294697383258733,0.0,0.0,0.0,0.0,0.0,1.0,0.0,0.0,0.0,0.0
1394659859644,22,4db27c35a86e58921bf70e55,46.49842054338733,11.306475696359751,46.500751351510715,11.304773724698705,0.0,0.0,0.0,0.0,0.0,0.0,0.0,0.0,1.0,0.0
1394659859644,1,4daf02436a23e6c93495e124,46.501859,11.304648,46.500751351510715,11.304773724698705,1.0,0.0,0.0,0.0,0.0,0.0,0.0,0.0,0.0,0.0
1394659859644,720,4c3446e23ffc95216dd190f5,46.499295500716734,11.309867006725245,46.500751351510715,11.309811895418694,0.0,0.0,0.0,0.0,0.0,0.0,0.0,0.0,1.0,0.0
1394659859644,18,4f41ea03e4b08cc373291395,46.49979070551441,11.310637552963117,46.500751351510715,11.309811895418694,0.0,0.0,0.0,0.0,0.0,0.0,0.0,0.0,1.0,0.0
1394659859644,3,508fdf75e4b0b197b98560fd,46.499595,11.309291,46.500751351510715,11.309811895418694,0.0,0.0,1.0,0.0,0.0,0.0,0.0,0.0,0.0,0.0
1394659859644,22,50f6a32ce4b070b4b32ceddd,46.498459287564295,11.308950343014915,46.500751351510715,11.309811895418694,0.0,0.0,0.0,0.0,0.0,0.0,0.0,0.0,1.0,0.0
1394659859644,15,4e787e39fa769112d5574504,46.49890442888928,11.310449646453355,46.500751351510715,11.309811895418694,0.0,0.0,0.0,0.0,0.0,0.0,0.0,0.0,1.0,0.0
1394659859644,10,4ecf7eed722e01c58136c90c,46.499659947165796,11.309714146218171,46.500751351510715,11.309811895418694,0.0,1.0,0.0,0.0,0.0,0.0,0.0,0.0,0.0,0.0
1394659859644,4,4f8d1d29e4b03758905953b3,46.4988608,11.3117881,46.500751351510715,11.309811895418694,0.0,0.0,0.0,0.0,0.0,0.0,0.0,0.0,1.0,0.0
1394659859644,4,4e37ce82b0fbcceaf0e4197d,46.49950968755379,11.309385658337506,46.500751351510715,11.309811895418694,0.0,0.0,0.0,0.0,1.0,0.0,0.0,0.0,0.0,0.0
1394659859644,8,4f631970e4b087553b8b0276,46.499241072559066,11.308502319908374,46.500751351510715,11.309811895418694,0.0,0.0,0.0,0.0,0.0,0.0,0.0,0.0,1.0,0.0
1394659859644,1,5233273211d2450ce423f11f,46.499123,11.309477,46.500751351510715,11.309811895418694,0.0,0.0,0.0,0.0,0.0,0.0,0.0,0.0,1.0,0.0
1394659859644,2,4fcce25be4b0a382cca55cf2,46.498707,11.309438,46.500751351510715,11.309811895418694,0.0,0.0,0.0,0.0,0.0,0.0,0.0,0.0,1.0,0.0
1394659859644,2,50aa1d31e4b0bb7b5c61cc53,46.49850082397461,11.308114051818848,46.500751351510715,11.309811895418694,0.0,1.0,0.0,0.0,0.0,0.0,0.0,0.0,0.0,0.0
1394659859644,76,4e8aa25e7ee6dd016f350ab0,46.498756075274635,11.312966411704442,46.500751351510715,11.314850066138678,0.0,0.0,0.0,0.0,0.0,0.0,0.0,0.0,1.0,0.0
1394659859644,31,4e660e47b0fb188e8f361878,46.499925,11.312826,46.500751351510715,11.314850066138678,0.0,0.0,0.0,0.0,0.0,0.0,1.0,0.0,0.0,0.0
1394659859644,2,4fad9229e4b085f6b25625b4,46.499239,11.314654,46.500751351510715,11.314850066138678,0.0,0.0,1.0,0.0,0.0,0.0,0.0,0.0,0.0,0.0
1394659859644,16,50098340f31c7afcb03d4b43,46.50195335742352,11.315096038782949,46.500751351510715,11.319888236858667,0.0,0.0,0.0,0.0,0.0,1.0,0.0,0.0,0.0,0.0
1394659859644,30,4dfc6a87aeb7594e861ff92f,46.50248593749366,11.318055865327123,46.500751351510715,11.319888236858667,1.0,0.0,0.0,0.0,0.0,0.0,0.0,0.0,0.0,0.0
1394659859644,21,4f563241e4b005c48003daa5,46.50242622220515,11.31795854529448,46.500751351510715,11.319888236858667,1.0,0.0,0.0,0.0,0.0,0.0,0.0,0.0,0.0,0.0
1394659859644,8,51bb5714498eb6b5cbf4d2f8,46.502968,11.327105,46.500751351510715,11.324926407578651,0.0,0.0,0.0,0.0,1.0,0.0,0.0,0.0,0.0,0.0
1394659859644,1,4de1472fc65bcc724f559262,46.49868,11.323462,46.500751351510715,11.324926407578651,0.0,0.0,1.0,0.0,0.0,0.0,0.0,0.0,0.0,0.0
1394659859644,4,4cf0d5ce8333224ba0ae068e,46.502771,11.327109,46.500751351510715,11.324926407578651,0.0,0.0,0.0,0.0,1.0,0.0,0.0,0.0,0.0,0.0
1394659859644,32,4fe0cecbe4b0e8a9285cc173,46.500229873960315,11.332023932876476,46.500751351510715,11.32996457829864,0.0,0.0,0.0,0.0,0.0,1.0,0.0,0.0,0.0,0.0
1394659859644,8,502be9b5f1367abeaa3693f5,46.503015361113384,11.328234672546387,46.500751351510715,11.32996457829864,0.0,0.0,0.0,0.0,1.0,0.0,0.0,0.0,0.0,0.0
1394659859644,19,4e5363a962e14e02e8b1c1c7,46.50282144151015,11.331468979364102,46.500751351510715,11.32996457829864,0.0,1.0,0.0,0.0,0.0,0.0,0.0,0.0,0.0,0.0
1394659859644,5,51ea5f4b498ee519b8f01750,46.502779,11.332096,46.500751351510715,11.32996457829864,0.0,0.0,0.0,0.0,1.0,0.0,0.0,0.0,0.0,0.0
1394659859644,47,4fbca95ce4b06c46325aeec4,46.501898857184955,11.33147746647048,46.500751351510715,11.32996457829864,0.0,0.0,0.0,0.0,0.0,0.0,1.0,0.0,0.0,0.0
1394659859644,51,4f98461de4b07d0a53e6607a,46.50075066974572,11.327127243148611,46.500751351510715,11.32996457829864,0.0,0.0,0.0,0.0,0.0,1.0,0.0,0.0,0.0,0.0
1394659859644,2,4f1e630ee4b0f978070ee672,46.50253012651448,11.331669863126393,46.500751351510715,11.32996457829864,0.0,0.0,1.0,0.0,0.0,0.0,0.0,0.0,0.0,0.0
1394659859644,24,4f059dea722e1ef4e342e5c1,46.50075066974572,11.327127243148611,46.500751351510715,11.32996457829864,0.0,0.0,0.0,0.0,0.0,1.0,0.0,0.0,0.0,0.0
1394659859644,10,4eb9bd67dab495868c0df928,46.50075066974572,11.327127243148611,46.500751351510715,11.32996457829864,0.0,0.0,0.0,0.0,0.0,1.0,0.0,0.0,0.0,0.0
1394659859644,5,4f158894e4b0960d02d3e7df,46.50075066974572,11.327127243148611,46.500751351510715,11.32996457829864,0.0,0.0,0.0,0.0,0.0,1.0,0.0,0.0,0.0,0.0
1394659859644,257,4eca156893ad41338fd9309e,46.50102880452489,11.333878040313719,46.500751351510715,11.335002749018624,0.0,0.0,0.0,0.0,0.0,0.0,0.0,0.0,1.0,0.0
1394659859644,526,4ddcd248b0fba481fc89b814,46.50236544011777,11.334538269460479,46.500751351510715,11.335002749018624,1.0,0.0,0.0,0.0,0.0,0.0,0.0,0.0,0.0,0.0
1394659859644,51,4f1442abe4b0725fee88fa28,46.499962348114984,11.336415021300711,46.500751351510715,11.335002749018624,0.0,0.0,0.0,0.0,0.0,0.0,0.0,0.0,1.0,0.0
1394659859644,113,4bc8d037762beee19b8c3d38,46.50216817007083,11.334626031606119,46.500751351510715,11.335002749018624,0.0,0.0,1.0,0.0,0.0,0.0,0.0,0.0,0.0,0.0
1394659859644,32,4e2025d545dd950bb016d378,46.50265906040931,11.33442298095207,46.500751351510715,11.335002749018624,0.0,1.0,0.0,0.0,0.0,0.0,0.0,0.0,0.0,0.0
1394659859644,10,50c31da7e4b0bde4a8ec51a1,46.502634,11.334646,46.500751351510715,11.335002749018624,0.0,0.0,0.0,1.0,0.0,0.0,0.0,0.0,0.0,0.0
1394659859644,74,4ddcd35dae60d6fc1594cc18,46.50137003155267,11.336691289327941,46.500751351510715,11.335002749018624,0.0,0.0,0.0,0.0,0.0,0.0,0.0,1.0,0.0,0.0
1394659859644,10,511a768de4b0152ab692b2ec,46.502060675830734,11.335425862868144,46.500751351510715,11.335002749018624,0.0,0.0,0.0,0.0,1.0,0.0,0.0,0.0,0.0,0.0
1394659859644,16,4fdf7560e4b05be237267a4e,46.500051,11.336583,46.500751351510715,11.335002749018624,0.0,1.0,0.0,0.0,0.0,0.0,0.0,0.0,0.0,0.0
1394659859644,1,52b2ffba498e8d0faf541946,46.50127834234488,11.335952798638342,46.500751351510715,11.335002749018624,0.0,0.0,0.0,0.0,1.0,0.0,0.0,0.0,0.0,0.0
1394659859644,5,520b848011d250e87239a20c,46.50232,11.334054,46.500751351510715,11.335002749018624,0.0,1.0,0.0,0.0,0.0,0.0,0.0,0.0,0.0,0.0
1394659859644,55,505ae788e4b0334c15895857,46.49954653315565,11.339159787782176,46.500751351510715,11.335002749018624,0.0,0.0,0.0,0.0,0.0,1.0,0.0,0.0,0.0,0.0
1394659859644,2,524d4d8b498ec3e2fe2988c5,46.502383,11.335121,46.500751351510715,11.335002749018624,0.0,1.0,0.0,0.0,0.0,0.0,0.0,0.0,0.0,0.0
1394659859644,1,5262f29211d2d3c5cb3480e1,46.50071716308594,11.337273597717285,46.500751351510715,11.335002749018624,0.0,1.0,0.0,0.0,0.0,0.0,0.0,0.0,0.0,0.0
1394659859644,59,4ebbe07600392bade1324486,46.502070094168104,11.335594654083252,46.500751351510715,11.335002749018624,0.0,0.0,0.0,0.0,1.0,0.0,0.0,0.0,0.0,0.0
1394659859644,12,509bf90fe4b03fb1c4880b76,46.49954653315565,11.339159787782176,46.500751351510715,11.335002749018624,0.0,0.0,0.0,0.0,0.0,1.0,0.0,0.0,0.0,0.0
1394659859644,79,4e2a7e38b0fbc2edac176e53,46.501326,11.337114,46.500751351510715,11.335002749018624,0.0,0.0,0.0,0.0,1.0,0.0,0.0,0.0,0.0,0.0
1394659859644,5,4f1d2edce4b0b4fdeb0b5119,46.50045145327744,11.336788517703871,46.500751351510715,11.335002749018624,0.0,1.0,0.0,0.0,0.0,0.0,0.0,0.0,0.0,0.0
1394659859644,2,524ad1a0498e96f70fa9526a,46.502696,11.334609,46.500751351510715,11.335002749018624,0.0,0.0,0.0,1.0,0.0,0.0,0.0,0.0,0.0,0.0
1394659859644,16,4cb8c05cc7228cfab4070bce,46.502500633962,11.334663287627539,46.500751351510715,11.335002749018624,0.0,0.0,0.0,1.0,0.0,0.0,0.0,0.0,0.0,0.0
1394659859644,57,4dfb8e6b7d8b56d8ae443712,46.49919303836629,11.337335522636739,46.500751351510715,11.335002749018624,0.0,0.0,0.0,0.0,1.0,0.0,0.0,0.0,0.0,0.0
1394659859644,8,51570054e4b0edb00cc8ae10,46.50294012385141,11.334419685672135,46.500751351510715,11.335002749018624,0.0,0.0,0.0,0.0,0.0,0.0,0.0,0.0,1.0,0.0
1394659859644,149,4bc5ba14ccbcef3b18d8e6d2,46.50134302422005,11.33712280939377,46.500751351510715,11.335002749018624,0.0,1.0,0.0,0.0,0.0,0.0,0.0,0.0,0.0,0.0
1394659859644,3,518e26e2498ecb6e71c00fbd,46.502303,11.33527,46.500751351510715,11.335002749018624,0.0,0.0,0.0,0.0,0.0,0.0,0.0,0.0,1.0,0.0
1394659859644,9,4dd0bfe5d164679b8d37525d,46.50292228404019,11.334455307370675,46.500751351510715,11.335002749018624,0.0,1.0,0.0,0.0,0.0,0.0,0.0,0.0,0.0,0.0
1394659859644,3,51570c1ae4b07cf8c74c9e7a,46.502144,11.336998,46.500751351510715,11.335002749018624,0.0,0.0,0.0,0.0,1.0,0.0,0.0,0.0,0.0,0.0
1394659859644,1,520bbfd411d2175a555bdacb,46.50117,11.336295,46.500751351510715,11.335002749018624,0.0,1.0,0.0,0.0,0.0,0.0,0.0,0.0,0.0,0.0
1394659859644,4,50dc6ac1e4b08766dfb26b7f,46.50210419587579,11.334927539210401,46.500751351510715,11.335002749018624,0.0,0.0,0.0,0.0,1.0,0.0,0.0,0.0,0.0,0.0
1394659859644,14,4fb212b1e4b0abe396b6946f,46.50212097118093,11.33729845096349,46.500751351510715,11.335002749018624,0.0,0.0,0.0,0.0,1.0,0.0,0.0,0.0,0.0,0.0
1394659859644,1,50b4903229a6e227f6a54c8c,46.50233595215762,11.334071159362793,46.500751351510715,11.335002749018624,0.0,1.0,0.0,0.0,0.0,0.0,0.0,0.0,0.0,0.0
1394659859644,35,4e6b4492aeb7c31e436a4871,46.50081002366793,11.340746845844867,46.500751351510715,11.340040919738613,1.0,0.0,0.0,0.0,0.0,0.0,0.0,0.0,0.0,0.0
1394659859644,189,4fa23189e4b0ff8e7ff7012d,46.49964864240064,11.340253247726158,46.500751351510715,11.340040919738613,0.0,0.0,0.0,0.0,0.0,0.0,0.0,0.0,1.0,0.0
1394659859644,3,52f118fe498e4fa67cf85454,46.501487,11.340029,46.500751351510715,11.340040919738613,1.0,0.0,0.0,0.0,0.0,0.0,0.0,0.0,0.0,0.0
1394659859644,90,4cdd8caf69136dcbc4c3cfe6,46.501315715943264,11.337528284585291,46.500751351510715,11.340040919738613,0.0,0.0,0.0,1.0,0.0,0.0,0.0,0.0,0.0,0.0
1394659859644,6,4f5b52a2e4b01014b9ae19b6,46.500663436642085,11.342018710020733,46.500751351510715,11.340040919738613,0.0,1.0,0.0,0.0,0.0,0.0,0.0,0.0,0.0,0.0
1394659859644,42,4d42e7557fb05481aec86f79,46.498765,11.341267,46.500751351510715,11.340040919738613,0.0,0.0,0.0,0.0,0.0,0.0,0.0,0.0,1.0,0.0
1394659859644,2,528c718111d2d94e90069af4,46.499541,11.341863,46.500751351510715,11.340040919738613,0.0,0.0,0.0,0.0,0.0,0.0,0.0,0.0,1.0,0.0
1394659859644,10,4f21bb49e4b05160ac3c2ddc,46.501877541807964,11.337904745134884,46.500751351510715,11.340040919738613,0.0,1.0,0.0,0.0,0.0,0.0,0.0,0.0,0.0,0.0
1394659859644,11,4e703c76c65b340cde527abc,46.50280952453613,11.339322924613953,46.500751351510715,11.340040919738613,0.0,0.0,0.0,0.0,0.0,0.0,0.0,0.0,1.0,0.0
1394659859644,28,5194f8ea498ec8544c119265,46.501786264706816,11.339605037710191,46.500751351510715,11.340040919738613,1.0,0.0,0.0,0.0,0.0,0.0,0.0,0.0,0.0,0.0
1394659859644,53,4c7ab6a197028cfa5909dffe,46.502163684665135,11.339865213004613,46.500751351510715,11.340040919738613,0.0,1.0,0.0,0.0,0.0,0.0,0.0,0.0,0.0,0.0
1394659859644,130,4c8fd509590ab1f78c48e27d,46.501300196528994,11.34015986592368,46.500751351510715,11.340040919738613,0.0,1.0,0.0,0.0,0.0,0.0,0.0,0.0,0.0,0.0
1394659859644,1,52ea77dd498e6cd80926d0dc,46.49939293316799,11.340812497205798,46.500751351510715,11.340040919738613,0.0,0.0,0.0,0.0,0.0,0.0,0.0,0.0,1.0,0.0
1394659859644,57,4dac37e75da3ba8a47b10a42,46.501587126053764,11.340330393244853,46.500751351510715,11.340040919738613,0.0,0.0,0.0,1.0,0.0,0.0,0.0,0.0,0.0,0.0
1394659859644,8,4f1ef12fe4b0d98f4d3bb84c,46.50043,11.339904,46.500751351510715,11.340040919738613,0.0,0.0,0.0,0.0,1.0,0.0,0.0,0.0,0.0,0.0
1394659859644,40,4dc2801845ddd5b5b6ad0dc2,46.50141477584839,11.341689,46.500751351510715,11.340040919738613,0.0,1.0,0.0,0.0,0.0,0.0,0.0,0.0,0.0,0.0
1394659859644,21,4dee55e01f6e0f9053f7d426,46.501253,11.34203,46.500751351510715,11.340040919738613,0.0,0.0,0.0,0.0,0.0,0.0,1.0,0.0,0.0,0.0
1394659859644,1,52e17b0b498ed105a0e02904,46.50173,11.34033,46.500751351510715,11.340040919738613,0.0,0.0,0.0,1.0,0.0,0.0,0.0,0.0,0.0,0.0
1394659859644,75,4e10b03d1838f8ad8154bd85,46.501130167231324,11.342537231064245,46.500751351510715,11.340040919738613,0.0,0.0,0.0,1.0,0.0,0.0,0.0,0.0,0.0,0.0
1394659859644,49,4bc5ba6841cb76b033b03e6f,46.501489877700806,11.34090542793274,46.500751351510715,11.340040919738613,0.0,1.0,0.0,0.0,0.0,0.0,0.0,0.0,0.0,0.0
1394659859644,10,50e9bf51e4b00d69b82e4fef,46.49954653315565,11.339159787782176,46.500751351510715,11.340040919738613,0.0,0.0,0.0,0.0,0.0,1.0,0.0,0.0,0.0,0.0
1394659859644,3,4fa538c1e4b0f902073ac44f,46.50153121147613,11.34021366969929,46.500751351510715,11.340040919738613,0.0,0.0,0.0,1.0,0.0,0.0,0.0,0.0,0.0,0.0
1394659859644,152,4c965ac338dd8cfa18beda62,46.498394731853324,11.341123347902869,46.500751351510715,11.340040919738613,0.0,1.0,0.0,0.0,0.0,0.0,0.0,0.0,0.0,0.0
1394659859644,59,4e1e88f752b1bdc463e4166c,46.502352,11.339794,46.500751351510715,11.340040919738613,0.0,0.0,1.0,0.0,0.0,0.0,0.0,0.0,0.0,0.0
1394659859644,39,4e86d784d22d7efe1606309c,46.501393791798016,11.341618683606912,46.500751351510715,11.340040919738613,0.0,0.0,0.0,0.0,1.0,0.0,0.0,0.0,0.0,0.0
1394659859644,51,4f55b33fe4b02285fdad05fb,46.500545,11.33785,46.500751351510715,11.340040919738613,0.0,1.0,0.0,0.0,0.0,0.0,0.0,0.0,0.0,0.0
1394659859644,4,51dd8231498e219fc1b180c6,46.501439,11.339625,46.500751351510715,11.340040919738613,0.0,0.0,0.0,1.0,0.0,0.0,0.0,0.0,0.0,0.0
1394659859644,3,5220e99411d2de85e92658e5,46.502234,11.339435,46.500751351510715,11.340040919738613,0.0,0.0,0.0,0.0,1.0,0.0,0.0,0.0,0.0,0.0
1394659859644,10,4f8ff0a3e4b07a23fe2d22fc,46.498416763423194,11.337790838001059,46.500751351510715,11.340040919738613,0.0,0.0,0.0,0.0,0.0,0.0,0.0,0.0,1.0,0.0
1394659859644,143,51a9b17c8bbd10213a929044,46.50162699462988,11.344703435897827,46.500751351510715,11.345079090458597,0.0,0.0,0.0,0.0,1.0,0.0,0.0,0.0,0.0,0.0
1394659859644,300,4e6140ebd4c06542aa6e09a3,46.499010794970346,11.347511834728412,46.500751351510715,11.345079090458597,0.0,0.0,0.0,0.0,0.0,0.0,0.0,1.0,0.0,0.0
1394659859644,26,4f1c0cdee4b0a62719a7d88d,46.49903230746297,11.347400188982462,46.500751351510715,11.345079090458597,1.0,0.0,0.0,0.0,0.0,0.0,0.0,0.0,0.0,0.0
1394659859644,55,4e74f1c5e4cd32543716d3b6,46.50049,11.344423,46.500751351510715,11.345079090458597,0.0,1.0,0.0,0.0,0.0,0.0,0.0,0.0,0.0,0.0
1394659859644,252,4d96fd1e744f3704605bc857,46.50040106709076,11.343155801296234,46.500751351510715,11.345079090458597,0.0,0.0,0.0,1.0,0.0,0.0,0.0,0.0,0.0,0.0
1394659859644,32,4d94858bb550a0934ef28787,46.50282231334024,11.342798743712939,46.500751351510715,11.345079090458597,0.0,0.0,0.0,0.0,0.0,0.0,0.0,0.0,1.0,0.0
1394659859644,4,5271659811d2000d16c2e498,46.50126767347984,11.343662165028364,46.500751351510715,11.345079090458597,0.0,1.0,0.0,0.0,0.0,0.0,0.0,0.0,0.0,0.0
1394659859644,333,4dea405e18386283a3df5fbb,46.50059199281906,11.343757449994936,46.500751351510715,11.345079090458597,1.0,0.0,0.0,0.0,0.0,0.0,0.0,0.0,0.0,0.0
1394659859644,6,4ed2976c9adf25445989f657,46.50233130721414,11.34380104689696,46.500751351510715,11.345079090458597,0.0,1.0,0.0,0.0,0.0,0.0,0.0,0.0,0.0,0.0
1394659859644,5,4e3d50b67d8b0e9610675f01,46.49984159,11.34594443,46.500751351510715,11.345079090458597,0.0,1.0,0.0,0.0,0.0,0.0,0.0,0.0,0.0,0.0
1394659859644,138,4dd6dc37d4c05d5096db5866,46.500265860203974,11.345310775063979,46.500751351510715,11.345079090458597,0.0,0.0,0.0,0.0,0.0,0.0,0.0,1.0,0.0,0.0
1394659859644,6,528080b3498e1c3522e2ad1b,46.500212,11.343162,46.500751351510715,11.345079090458597,0.0,1.0,0.0,0.0,0.0,0.0,0.0,0.0,0.0,0.0
1394659859644,7,4ebd888082317d5cdb260943,46.4991749800297,11.344308034077073,46.500751351510715,11.345079090458597,1.0,0.0,0.0,0.0,0.0,0.0,0.0,0.0,0.0,0.0
1394659859644,2,4e57b131e4cd6acbd75eee17,46.50256531335726,11.343638571189468,46.500751351510715,11.345079090458597,0.0,1.0,0.0,0.0,0.0,0.0,0.0,0.0,0.0,0.0
1394659859644,19,4e85c65c5503d5e079ba591d,46.49914987692343,11.347265150312685,46.500751351510715,11.345079090458597,0.0,0.0,0.0,0.0,1.0,0.0,0.0,0.0,0.0,0.0
1394659859644,8,4fae7184e4b059499e4c31e4,46.501620977221435,11.34324065123115,46.500751351510715,11.345079090458597,0.0,0.0,0.0,0.0,0.0,0.0,0.0,0.0,1.0,0.0
1394659859644,69,4ece9594cc219860f5598794,46.50021268893728,11.347261498375318,46.500751351510715,11.345079090458597,1.0,0.0,0.0,0.0,0.0,0.0,0.0,0.0,0.0,0.0
1394659859644,106,4d96384bc19fb60cb9f17865,46.50306441160106,11.345634366927795,46.500751351510715,11.345079090458597,0.0,0.0,0.0,0.0,0.0,0.0,0.0,1.0,0.0,0.0
1394659859644,6,4fd4a953e4b02bbdc6174798,46.49895772791869,11.34710451587693,46.500751351510715,11.345079090458597,0.0,0.0,0.0,0.0,0.0,0.0,1.0,0.0,0.0,0.0
1394659859644,20,4ca22b22a73cb60c2ff90d78,46.50127,11.344175,46.500751351510715,11.345079090458597,0.0,1.0,0.0,0.0,0.0,0.0,0.0,0.0,0.0,0.0
1394659859644,76,4d7791b5d10fa14383abcb3d,46.50132482979253,11.347330071079947,46.500751351510715,11.345079090458597,1.0,0.0,0.0,0.0,0.0,0.0,0.0,0.0,0.0,0.0
1394659859644,4,50004261e4b0625c790b6a52,46.50044574434277,11.343032426512334,46.500751351510715,11.345079090458597,0.0,0.0,0.0,0.0,1.0,0.0,0.0,0.0,0.0,0.0
1394659859644,2,4e16f5136284b506cfde3365,46.50299,11.346406,46.500751351510715,11.345079090458597,1.0,0.0,0.0,0.0,0.0,0.0,0.0,0.0,0.0,0.0
1394659859644,2,4fa3c1e6e4b0b487ccbeb5ce,46.499253,11.344706,46.500751351510715,11.345079090458597,0.0,0.0,0.0,0.0,0.0,0.0,0.0,0.0,1.0,0.0
1394659859644,6,4ed295ac2c5bc3505995c3bb,46.501038042333924,11.345146990520517,46.500751351510715,11.345079090458597,1.0,0.0,0.0,0.0,0.0,0.0,0.0,0.0,0.0,0.0
1394659859644,4,4f564b76e4b074d63d898f7b,46.50304412841797,11.344096183776855,46.500751351510715,11.345079090458597,0.0,0.0,0.0,0.0,0.0,0.0,1.0,0.0,0.0,0.0
1394659859644,4,4fb60728e4b037d01d83a29f,46.499819,11.343302,46.500751351510715,11.345079090458597,0.0,0.0,0.0,0.0,1.0,0.0,0.0,0.0,0.0,0.0
1394659859644,3,4ef22d40775bf265c3abb931,46.501803662120935,11.344201494750086,46.500751351510715,11.345079090458597,1.0,0.0,0.0,0.0,0.0,0.0,0.0,0.0,0.0,0.0
1394659859644,14,4dc56085d22dafda2fa26964,46.500704,11.34397,46.500751351510715,11.345079090458597,0.0,1.0,0.0,0.0,0.0,0.0,0.0,0.0,0.0,0.0
1394659859644,15,4f48bd69e4b0426dbb323da3,46.50118,11.344417,46.500751351510715,11.345079090458597,0.0,0.0,0.0,1.0,0.0,0.0,0.0,0.0,0.0,0.0
1394659859644,988,4cfcad14c6cca35d71c79232,46.499538461609625,11.352537686915161,46.500751351510715,11.350117261178585,1.0,0.0,0.0,0.0,0.0,0.0,0.0,0.0,0.0,0.0
1394659859644,41,4f3e90f3e4b0500b688747b7,46.49875259214888,11.3508846483634,46.500751351510715,11.350117261178585,0.0,1.0,0.0,0.0,0.0,0.0,0.0,0.0,0.0,0.0
1394659859644,825,4bcae9d968f976b044246083,46.4992929709255,11.352511897413436,46.500751351510715,11.350117261178585,0.0,0.0,0.0,1.0,0.0,0.0,0.0,0.0,0.0,0.0
1394659859644,281,4e6a7a2452b1c1205fd480a7,46.498952513641186,11.347662477881167,46.500751351510715,11.350117261178585,1.0,0.0,0.0,0.0,0.0,0.0,0.0,0.0,0.0,0.0
1394659859644,51,4f7ab1c7e4b0c69aa3cd74e2,46.4984998231813,11.352385425329025,46.500751351510715,11.350117261178585,0.0,1.0,0.0,0.0,0.0,0.0,0.0,0.0,0.0,0.0
1394659859644,325,4bedbb2be24d20a124e77114,46.49900375817847,11.352290662436234,46.500751351510715,11.350117261178585,0.0,0.0,0.0,1.0,0.0,0.0,0.0,0.0,0.0,0.0
1394659859644,404,4e47a6cfd164155c0df593be,46.49991391849514,11.349432754778405,46.500751351510715,11.350117261178585,0.0,0.0,0.0,0.0,0.0,0.0,0.0,1.0,0.0,0.0
1394659859644,37,4d513eb8dcce224ba7dcdf1b,46.500253,11.348183,46.500751351510715,11.350117261178585,0.0,1.0,0.0,0.0,0.0,0.0,0.0,0.0,0.0,0.0
1394659859644,49,5077ccc7ebca485bb8500f58,46.49985456036436,11.349735260009766,46.500751351510715,11.350117261178585,0.0,0.0,0.0,0.0,1.0,0.0,0.0,0.0,0.0,0.0
1394659859644,8,52ea856f498e5dd58171a805,46.499533253300065,11.349243055927488,46.500751351510715,11.350117261178585,0.0,0.0,0.0,0.0,0.0,1.0,0.0,0.0,0.0,0.0
1394659859644,52,4e2aae78d4c0e5c89abba410,46.498982,11.35206,46.500751351510715,11.350117261178585,0.0,1.0,0.0,0.0,0.0,0.0,0.0,0.0,0.0,0.0
1394659859644,188,4e43f000b0fb71d2197b5c1f,46.499864509082656,11.349620078292187,46.500751351510715,11.350117261178585,1.0,0.0,0.0,0.0,0.0,0.0,0.0,0.0,0.0,0.0
1394659859644,98,4ba28536f964a5208d0038e3,46.49924,11.352378,46.500751351510715,11.350117261178585,0.0,1.0,0.0,0.0,0.0,0.0,0.0,0.0,0.0,0.0
1394659859644,85,50ae109be4b034c5d6bbfa0e,46.49991164658607,11.350810268787738,46.500751351510715,11.350117261178585,0.0,0.0,0.0,0.0,1.0,0.0,0.0,0.0,0.0,0.0
1394659859644,454,4c7266700e23b1f722921ddc,46.498569509391146,11.350786685943604,46.500751351510715,11.350117261178585,0.0,0.0,0.0,0.0,0.0,0.0,1.0,0.0,0.0,0.0
1394659859644,12,5231ac7811d2f59614e38739,46.499914627316834,11.35057916901498,46.500751351510715,11.350117261178585,0.0,0.0,0.0,0.0,1.0,0.0,0.0,0.0,0.0,0.0
1394659859644,496,4bcb3e18cc8cd13a13efbecf,46.501412169751596,11.348269991877943,46.500751351510715,11.350117261178585,1.0,0.0,0.0,0.0,0.0,0.0,0.0,0.0,0.0,0.0
1394659859644,165,5059ee02e4b0616dc6cc323e,46.49978066446398,11.350002728746752,46.500751351510715,11.350117261178585,0.0,0.0,0.0,0.0,1.0,0.0,0.0,0.0,0.0,0.0
1394659859644,4,5152c52ce4b0ed45a823b8bd,46.50145956218819,11.349155425818442,46.500751351510715,11.350117261178585,0.0,0.0,0.0,0.0,0.0,0.0,0.0,0.0,1.0,0.0
1394659859644,1,532056ef11d21be049b86132,46.49975593236679,11.351056488311569,46.500751351510715,11.350117261178585,0.0,0.0,0.0,0.0,0.0,0.0,0.0,0.0,1.0,0.0
1394659859644,2,5176c263498e0de3b7212ee9,46.499639,11.352474,46.500751351510715,11.350117261178585,0.0,0.0,0.0,0.0,1.0,0.0,0.0,0.0,0.0,0.0
1394659859644,83,4eff7100775bec6b43b23f83,46.49932231966515,11.35258165439244,46.500751351510715,11.350117261178585,0.0,1.0,0.0,0.0,0.0,0.0,0.0,0.0,0.0,0.0
1394659859644,203,4d964eb3942ba093a031508c,46.499535,11.352508,46.500751351510715,11.350117261178585,0.0,0.0,0.0,1.0,0.0,0.0,0.0,0.0,0.0,0.0
1394659859644,9,524179ad11d265274dabdf9b,46.498780900068645,11.35095791821963,46.500751351510715,11.350117261178585,0.0,1.0,0.0,0.0,0.0,0.0,0.0,0.0,0.0,0.0
1394659859644,5,4e3fe4097d8b0e9610887660,46.49977435624647,11.352628922744737,46.500751351510715,11.350117261178585,0.0,1.0,0.0,0.0,0.0,0.0,0.0,0.0,0.0,0.0
1394659859644,126,4dbb0f0ea86e0e98a1c0a1a2,46.49957366941887,11.352426032712204,46.500751351510715,11.350117261178585,0.0,1.0,0.0,0.0,0.0,0.0,0.0,0.0,0.0,0.0
1394659859644,1,51fbb22b454a8493d2e331e8,46.49998749493854,11.349949836730955,46.500751351510715,11.350117261178585,0.0,0.0,0.0,0.0,1.0,0.0,0.0,0.0,0.0,0.0
1394659859644,12,51c96f8a498e5bcdfecc503f,46.49862906782289,11.350811292823352,46.500751351510715,11.350117261178585,0.0,0.0,0.0,1.0,0.0,0.0,0.0,0.0,0.0,0.0
1394659859644,15,51324c99e4b0ee8b31fcc0d6,46.499366372351666,11.34772721180876,46.500751351510715,11.350117261178585,0.0,1.0,0.0,0.0,0.0,0.0,0.0,0.0,0.0,0.0
1394659859644,2913,4c24a0a5a852c928435ae36c,46.498397912985624,11.354805556594096,46.500751351510715,11.35515543189857,1.0,0.0,0.0,0.0,0.0,0.0,0.0,0.0,0.0,0.0
