Timestamp (ms),Been Here,Venue Id,Venue Latitude,Venue Longitude,Focal Latitude,Focal Longitude,Arts & Entertainment,College & University,Event,Food,Nightlife Spot,Outdoors & Recreation,Professional & Other Places,Residence,Shop & Service,Travel & Transport
1393535343884,4,51c95dac498e7db1dafc5d3e,45.68331362310724,10.905887354226994,45.68661223157983,10.908358875197306,1.0,0.0,0.0,0.0,0.0,0.0,0.0,0.0,0.0,0.0
1393535343884,0,5028e8bae4b0c75a168318cc,45.6843997,10.907444,45.68661223157983,10.908358875197306,0.0,1.0,0.0,0.0,0.0,0.0,0.0,0.0,0.0,0.0
1393535343884,1,519f359c498e9a7f7e5f89bf,45.681288,10.962827,45.68574282034095,10.95969795456452,0.0,0.0,1.0,0.0,0.0,0.0,0.0,0.0,0.0,0.0
1393535343884,171,4e87305bdab47c0dbacaac53,45.69258650126736,10.9118914604187,45.69560806381264,10.908664949951792,1.0,0.0,0.0,0.0,0.0,0.0,0.0,0.0,0.0,0.0
1393535343884,27,4e183983fa761946458eb678,45.691805588278235,10.904874496854278,45.69560806381264,10.908664949951792,0.0,1.0,0.0,0.0,0.0,0.0,0.0,0.0,0.0,0.0
1393535343884,15,4ea128d461af76b39bfec379,45.6932170369333,10.911594042014125,45.69560806381264,10.908664949951792,1.0,0.0,0.0,0.0,0.0,0.0,0.0,0.0,0.0,0.0
1393535343884,362,4de74a82c65b4e07dafc61dc,45.69310673692586,10.912220817271843,45.69560806381264,10.908664949951792,0.0,1.0,0.0,0.0,0.0,0.0,0.0,0.0,0.0,0.0
1393535343884,21,4db32353cda1c57c823fa230,45.69264881999151,10.910885697939351,45.69560806381264,10.908664949951792,0.0,1.0,0.0,0.0,0.0,0.0,0.0,0.0,0.0,0.0
1393535343884,20,4d99ca92744f3704e5120f58,45.6924,10.9115,45.69560806381264,10.908664949951792,0.0,0.0,0.0,1.0,0.0,0.0,0.0,0.0,0.0,0.0
1393535343884,23,4f8155b3e4b0e160ba1e9dcb,45.69167530067544,10.910333968089654,45.69560806381264,10.908664949951792,0.0,0.0,0.0,0.0,1.0,0.0,0.0,0.0,0.0,0.0
1393535343884,7,4edb4c60b8f7fcd0415fd5dc,45.69295338200992,10.911920856642329,45.69560806381264,10.908664949951792,1.0,0.0,0.0,0.0,0.0,0.0,0.0,0.0,0.0,0.0
1393535343884,20,4c50305edcb5d13a04409208,45.693236,10.912553,45.69560806381264,10.908664949951792,0.0,0.0,0.0,1.0,0.0,0.0,0.0,0.0,0.0,0.0
1393535343884,6,4d4eb5bae0f2a1cd04e88f8d,45.692576,10.910915,45.69560806381264,10.908664949951792,0.0,0.0,1.0,0.0,0.0,0.0,0.0,0.0,0.0,0.0
1393535343884,4,4dea31ce45dd3993a88436d8,45.695485,10.910843,45.69560806381264,10.908664949951792,0.0,1.0,0.0,0.0,0.0,0.0,0.0,0.0,0.0,0.0
1393535343884,0,4f8db1a5e4b0375890e8985e,45.69167530067544,10.910333968089654,45.69560806381264,10.908664949951792,0.0,0.0,0.0,0.0,1.0,0.0,0.0,0.0,0.0,0.0
1393535343884,851,4c9cd2e18afca093d6cbf015,45.69485,10.916,45.69539280548794,10.921501995209304,1.0,0.0,0.0,0.0,0.0,0.0,0.0,0.0,0.0,0.0
1393535343884,54,5065a440e4b08d326f1f6bb6,45.694997,10.91657,45.69539280548794,10.921501995209304,0.0,1.0,0.0,0.0,0.0,0.0,0.0,0.0,0.0,0.0
1393535343884,38,512487ade4b0ab290c7c0d9b,45.695095465067936,10.91654243701936,45.69539280548794,10.921501995209304,0.0,0.0,1.0,0.0,0.0,0.0,0.0,0.0,0.0,0.0
1393535343884,41,4d7e5b18564b8cfa2555f064,45.69690242697518,10.927098488622931,45.69539280548794,10.921501995209304,0.0,0.0,0.0,1.0,0.0,0.0,0.0,0.0,0.0,0.0
1393535343884,3,4ddcd8ae1f6e54b34d92afa4,45.69676392841056,10.927644113013454,45.69539280548794,10.921501995209304,0.0,1.0,0.0,0.0,0.0,0.0,0.0,0.0,0.0,0.0
1393535343884,1,520e45b7498e51ef92c9d352,45.69937515258789,10.927556991577148,45.69539280548794,10.921501995209304,0.0,0.0,1.0,0.0,0.0,0.0,0.0,0.0,0.0,0.0
1393535343884,4,5149c350e4b0d14600100ce7,45.69483323921696,10.916343483177009,45.69539280548794,10.921501995209304,0.0,0.0,0.0,0.0,0.0,1.0,0.0,0.0,0.0,0.0
1393535343884,2,51ea6374498e9a066717b5b7,45.693907,10.925669,45.69539280548794,10.921501995209304,0.0,1.0,0.0,0.0,0.0,0.0,0.0,0.0,0.0,0.0
1393535343884,3,523da78911d2b6fea11216fa,45.695685,10.975483,45.69451735694807,10.972848705896,0.0,1.0,0.0,0.0,0.0,0.0,0.0,0.0,0.0,0.0
1393535343884,7,50d6054fe4b0feaa49050204,45.69417869036565,10.975834197502271,45.69451735694807,10.972848705896,0.0,1.0,0.0,0.0,0.0,0.0,0.0,0.0,0.0,0.0
1393535343884,23,4eb2c9f9be7b67859fd8e41a,45.70816817219739,10.925855674565195,45.70438855472368,10.921810271504366,1.0,0.0,0.0,0.0,0.0,0.0,0.0,0.0,0.0,0.0
1393535343884,1,4db3efed6e8179a913737ea0,45.71014036245381,10.917457009577536,45.70438855472368,10.921810271504366,0.0,0.0,0.0,0.0,1.0,0.0,0.0,0.0,0.0,0.0
1393535343884,80,4c7d351f3b22a1cd1d2f5e9e,45.70459088351877,10.931053161621094,45.70417178721187,10.934649227066885,0.0,1.0,0.0,0.0,0.0,0.0,0.0,0.0,0.0,0.0
1393535343884,24,4c7cd4f49efda143f3ae86e2,45.70372173889503,10.931825637817383,45.70417178721187,10.934649227066885,0.0,1.0,0.0,0.0,0.0,0.0,0.0,0.0,0.0,0.0
1393535343884,0,521726db0493c5d33d219d00,45.707587830311894,10.972359180450438,45.703512833009086,10.973165207139806,0.0,0.0,1.0,0.0,0.0,0.0,0.0,0.0,0.0,0.0
1393535343884,8,4e3929b6c65bab738fcc9d7c,45.70369185416407,11.115974187109966,45.700985654965564,11.114378714561294,0.0,0.0,1.0,0.0,0.0,0.0,0.0,0.0,0.0,0.0
1393535343884,1,52e0e5af11d2ac933c8d4681,45.7109375,10.875550270080566,45.71423720363451,10.870753189754367,0.0,0.0,0.0,1.0,0.0,0.0,0.0,0.0,0.0,0.0
1393535343884,6,506c064ce4b09829343573d8,45.70927422732151,10.926528803457071,45.71338428811057,10.922118693946317,0.0,0.0,0.0,0.0,0.0,0.0,1.0,0.0,0.0,0.0
1393535343884,52,4e7a2706e4cdb158f243adc4,45.71476175448212,10.931397598243999,45.71316745295748,10.934959706848778,0.0,0.0,1.0,0.0,0.0,0.0,0.0,0.0,0.0,0.0
1393535343884,6,4e29405e52b1c37d35c9fccc,45.714202,10.93095,45.71316745295748,10.934959706848778,1.0,0.0,0.0,0.0,0.0,0.0,0.0,0.0,0.0,0.0
1393535343884,2,4f9f026ee4b0b38d3174f1d2,45.712093353271484,10.929662704467773,45.71316745295748,10.934959706848778,0.0,0.0,1.0,0.0,0.0,0.0,0.0,0.0,0.0,0.0
1393535343884,1,51d96d11498e43b77343d8d7,45.711727,10.998048,45.71206164172031,10.999162543791781,0.0,0.0,1.0,0.0,0.0,0.0,0.0,0.0,0.0,0.0
1393535343884,12,4e9a6ece8b81c0254e5b8a5d,45.710824876714,11.141309665799128,45.70950195119799,11.140395231185476,0.0,0.0,1.0,0.0,0.0,0.0,0.0,0.0,0.0,0.0
1393535343884,6,4e884afcbe7bdb95c31c0c46,45.711070051848026,11.14020847765725,45.70950195119799,11.140395231185476,0.0,0.0,1.0,0.0,0.0,0.0,0.0,0.0,0.0,0.0
1393535343884,0,4e316a5a7d8b9b256bcb0278,45.72861201368205,10.924587474562138,45.72238000564772,10.92242726262053,0.0,0.0,0.0,0.0,1.0,0.0,0.0,0.0,0.0,0.0
1393535343884,43,4e6a5af4d4c01ce017887692,45.72037690838812,10.935404563032556,45.72216310283183,10.935270333836883,0.0,0.0,1.0,0.0,0.0,0.0,0.0,0.0,0.0,0.0
1393535343884,186,4dd9a03a7d8b322664257ef7,45.72596440981509,10.938745656976273,45.72216310283183,10.935270333836883,0.0,0.0,0.0,1.0,0.0,0.0,0.0,0.0,0.0,0.0
1393535343884,6,4fcb2c0ee4b0a6e7150d6b6a,45.71858195216324,10.929045565139127,45.72216310283183,10.935270333836883,0.0,0.0,1.0,0.0,0.0,0.0,0.0,0.0,0.0,0.0
1393535343884,9,4ea537af2c5b5cb4f5243176,45.72593804995602,10.946259928296556,45.72194475714338,10.948113257761012,0.0,0.0,1.0,0.0,0.0,0.0,0.0,0.0,0.0,0.0
1393535343884,6,502bddf2e4b042ed6dc5eb78,45.725716255769065,10.965671175119478,45.72172496862584,10.960956033418487,0.0,0.0,0.0,1.0,0.0,0.0,0.0,0.0,0.0,0.0
1393535343884,9,51fcf49f498e983c75f1b170,45.718293,11.017241,45.720831387143846,11.012325633895573,0.0,1.0,0.0,0.0,0.0,0.0,0.0,0.0,0.0,0.0
1393535343884,10,4eff88166da1cd0358993040,45.73545001070874,10.88182060832985,45.73201795847076,10.884199711579518,0.0,0.0,0.0,1.0,0.0,0.0,0.0,0.0,0.0,0.0
1393535343884,136,4e4f1583a80997aa8a34e00d,45.733625902300126,10.936747952087977,45.73115873683401,10.93558110811721,0.0,0.0,0.0,0.0,0.0,0.0,1.0,0.0,0.0,0.0
1393535343884,78,4e18215145dd120c120b8ada,45.729958,10.938723,45.73115873683401,10.93558110811721,1.0,0.0,0.0,0.0,0.0,0.0,0.0,0.0,0.0,0.0
1393535343884,284,4e405665b61cb577be9cae0e,45.73323398577023,10.933176626451434,45.73115873683401,10.93558110811721,0.0,0.0,0.0,0.0,0.0,1.0,0.0,0.0,0.0,0.0
1393535343884,292,4e31c602fa76634e16c4e14b,45.73360955585664,10.935516357421875,45.73115873683401,10.93558110811721,0.0,0.0,0.0,0.0,0.0,0.0,0.0,1.0,0.0,0.0
1393535343884,4,52ecf418498e5b94c58b26e4,45.7355315617805,10.93796538504052,45.73115873683401,10.93558110811721,0.0,0.0,0.0,0.0,0.0,0.0,1.0,0.0,0.0,0.0
1393535343884,29,4e624779d22d509a398aef83,45.7330704,10.9333347,45.73115873683401,10.93558110811721,0.0,0.0,0.0,0.0,0.0,0.0,1.0,0.0,0.0,0.0
1393535343884,8,4e9c60f393ada5036e14f23a,45.735106,10.939539,45.73115873683401,10.93558110811721,0.0,0.0,0.0,0.0,0.0,0.0,0.0,1.0,0.0,0.0
1393535343884,6,4ea2e2858231f6dc6a358c1c,45.734452160059504,10.93865744804282,45.73115873683401,10.93558110811721,1.0,0.0,0.0,0.0,0.0,0.0,0.0,0.0,0.0,0.0
1393535343884,45,4ec3d4428b8132e0834ec8f8,45.731513208699894,10.939460401023215,45.73115873683401,10.93558110811721,0.0,0.0,0.0,0.0,0.0,0.0,1.0,0.0,0.0,0.0
1393535343884,75,4e4e5f87b0fb088f3c0be552,45.7351165,10.9382294,45.73115873683401,10.93558110811721,1.0,0.0,0.0,0.0,0.0,0.0,0.0,0.0,0.0,0.0
1393535343884,5,51f7914e498e9eb36a2771f5,45.72812406110929,10.935967671479412,45.73115873683401,10.93558110811721,1.0,0.0,0.0,0.0,0.0,0.0,0.0,0.0,0.0,0.0
1393535343884,2,521e30f811d2a0d772b01f18,45.735599517822266,10.941692352294922,45.73115873683401,10.93558110811721,0.0,0.0,0.0,0.0,0.0,0.0,1.0,0.0,0.0,0.0
1393535343884,3,4e65db18d22d509a3b0eefeb,45.734397859520406,10.942125262639252,45.73115873683401,10.93558110811721,0.0,0.0,0.0,0.0,0.0,0.0,1.0,0.0,0.0,0.0
1393535343884,18,4e401cbe1838cb1b8313aa88,45.734452160059504,10.939711020765984,45.73115873683401,10.93558110811721,0.0,0.0,1.0,0.0,0.0,0.0,0.0,0.0,0.0,0.0
1393535343884,30,4e318915e4cde9495fd307ee,45.73454309868997,10.93898364019405,45.73115873683401,10.93558110811721,1.0,0.0,0.0,0.0,0.0,0.0,0.0,0.0,0.0,0.0
1393535343884,2,50116bd9e4b0c3d590642a2d,45.735309,10.94014,45.73115873683401,10.93558110811721,1.0,0.0,0.0,0.0,0.0,0.0,0.0,0.0,0.0,0.0
1393535343884,8,4e8c276a7ee6beb5b5f4bc0f,45.730138,10.938886,45.73115873683401,10.93558110811721,1.0,0.0,0.0,0.0,0.0,0.0,0.0,0.0,0.0,0.0
1393535343884,3,500efb7ce4b0878eb5e12bc5,45.73453816631179,10.940334220988383,45.73115873683401,10.93558110811721,0.0,0.0,0.0,0.0,0.0,1.0,0.0,0.0,0.0,0.0
1393535343884,4,4eb56c29dab4fe5111a36d07,45.73384380458616,10.935509184862978,45.73115873683401,10.93558110811721,1.0,0.0,0.0,0.0,0.0,0.0,0.0,0.0,0.0,0.0
1393535343884,26,4e67b9ce1f6ecb18da6d1834,45.733000454491645,10.933243296491106,45.73115873683401,10.93558110811721,0.0,0.0,0.0,0.0,0.0,0.0,0.0,1.0,0.0,0.0
1393535343884,5,4e1016b1b61c637b97a16b15,45.732705,10.930053,45.73115873683401,10.93558110811721,0.0,0.0,1.0,0.0,0.0,0.0,0.0,0.0,0.0,0.0
1393535343884,3,4e74a2662271ffa4e68c7d57,45.7330698,10.9333034,45.73115873683401,10.93558110811721,0.0,0.0,1.0,0.0,0.0,0.0,0.0,0.0,0.0,0.0
1393535343884,6,4e7b5719b0fb5921304cde6f,45.73671921337409,10.9398693295736,45.73115873683401,10.93558110811721,0.0,0.0,0.0,0.0,1.0,0.0,0.0,0.0,0.0,0.0
1393535343884,4,4e8c636fe5e8c735f906c7dd,45.73154264259402,10.940194129943848,45.73115873683401,10.93558110811721,0.0,0.0,0.0,0.0,0.0,1.0,0.0,0.0,0.0,0.0
1393535343884,10,4e4ac5eaae6014a2fdd691b3,45.734709653447965,10.936606963185785,45.73115873683401,10.93558110811721,0.0,1.0,0.0,0.0,0.0,0.0,0.0,0.0,0.0,0.0
1393535343884,26,4e876541775b99e0ac718d9a,45.73671921337409,10.9398693295736,45.73115873683401,10.93558110811721,0.0,0.0,0.0,0.0,1.0,0.0,0.0,0.0,0.0,0.0
1393535343884,1,4ea1a0bc2c5b5cb4f3a3727e,45.729268,10.932418,45.73115873683401,10.93558110811721,0.0,0.0,0.0,0.0,0.0,0.0,0.0,1.0,0.0,0.0
1393535343884,2,4e87429e823125560f2bd451,45.73671921337409,10.9398693295736,45.73115873683401,10.93558110811721,0.0,0.0,0.0,0.0,1.0,0.0,0.0,0.0,0.0,0.0
1393535343884,1,4e7f2d6bbe7b8e7f60f6b9d5,45.7330698,10.9333034,45.73115873683401,10.93558110811721,0.0,0.0,0.0,0.0,0.0,0.0,1.0,0.0,0.0,0.0
1393535343884,0,52ecf3b511d2e95a95a98d90,45.735530853271484,10.937984466552734,45.73115873683401,10.93558110811721,0.0,0.0,0.0,0.0,0.0,0.0,1.0,0.0,0.0,0.0
1393535343884,224,4c9e97c12fb1a1439a41ec40,45.735002516646944,10.95102967070624,45.73094032301151,10.948426091243649,0.0,0.0,1.0,0.0,0.0,0.0,0.0,0.0,0.0,0.0
1393535343884,63,4e8c1b96823129f4e0cb678c,45.73452474872157,10.951318873744935,45.73094032301151,10.948426091243649,1.0,0.0,0.0,0.0,0.0,0.0,0.0,0.0,0.0,0.0
1393535343884,4,50eb491d498ec967d82cf36c,45.73425203787524,10.942181597248931,45.73094032301151,10.948426091243649,0.0,0.0,0.0,0.0,1.0,0.0,0.0,0.0,0.0,0.0
1393535343884,18,4e9aea1c30f87c966c71f4c9,45.73092167830926,10.943145078906552,45.73094032301151,10.948426091243649,0.0,0.0,0.0,0.0,0.0,0.0,1.0,0.0,0.0,0.0
1393535343884,18,4e70eabfe4cd5c869434dbb4,45.73543653901992,10.94234122959963,45.73094032301151,10.948426091243649,0.0,1.0,0.0,0.0,0.0,0.0,0.0,0.0,0.0,0.0
1393535343884,3,4e65db18d22d509a3b0eefeb,45.734397859520406,10.942125262639252,45.73094032301151,10.948426091243649,0.0,0.0,0.0,0.0,0.0,0.0,1.0,0.0,0.0,0.0
1393535343884,8,4ff83ba3e4b033b23be81a5b,45.729366,10.949945,45.73094032301151,10.948426091243649,1.0,0.0,0.0,0.0,0.0,0.0,0.0,0.0,0.0,0.0
1393535343884,3,4ed9dfce6da1642c5c14a3f1,45.72972092536398,10.942636099671587,45.73094032301151,10.948426091243649,1.0,0.0,0.0,0.0,0.0,0.0,0.0,0.0,0.0,0.0
1393535343884,162,4bd276d941b9ef3b8d49fee5,45.733715995628344,10.955632585988532,45.73072046591022,10.96127092601677,0.0,0.0,0.0,1.0,0.0,0.0,0.0,0.0,0.0,0.0
1393535343884,1,52643b69498e1970d66f7227,45.733521,10.956693,45.73072046591022,10.96127092601677,0.0,0.0,1.0,0.0,0.0,0.0,0.0,0.0,0.0,0.0
1393535343884,2,51b31a8d498e71dde31e0a4c,45.734130859375,10.95760631561279,45.73072046591022,10.96127092601677,0.0,1.0,0.0,0.0,0.0,0.0,0.0,0.0,0.0,0.0
1393535343884,13,4d8495337e8ef04dd7aa0dbe,45.731505197807756,11.074411869049072,45.72867681176894,11.076867602235382,0.0,1.0,0.0,0.0,0.0,0.0,0.0,0.0,0.0,0.0
1393535343884,24,4e1ff50288774a43b75a5584,45.723405,11.129161,45.727731005528085,11.12823983441978,0.0,0.0,1.0,0.0,0.0,0.0,0.0,0.0,0.0,0.0
1393535343884,34,4e4278a9b0fb09b6086e678a,45.72858440372794,11.163035857115352,45.72700650296369,11.166767311012787,0.0,0.0,1.0,0.0,0.0,0.0,0.0,0.0,0.0,0.0
1393535343884,1,51d8d753498e3171105e8a43,45.726455,11.170906,45.72700650296369,11.166767311012787,0.0,0.0,1.0,0.0,0.0,0.0,0.0,0.0,0.0,0.0
1393535343884,1,51bd9683498e2d774cb7b225,45.729805,11.167844,45.72700650296369,11.166767311012787,0.0,0.0,1.0,0.0,0.0,0.0,0.0,0.0,0.0,0.0
1393535343884,4,4fb4c4e1e4b0292fd33662ff,45.741708219918394,10.888689714693365,45.74101384472403,10.884502391673,0.0,0.0,0.0,0.0,0.0,0.0,1.0,0.0,0.0,0.0
1393535343884,11,4e5f38e9149582866d3e01b9,45.73594258613055,10.942117857779104,45.74015435496314,10.93589202977586,0.0,0.0,1.0,0.0,0.0,0.0,0.0,0.0,0.0,0.0
1393535343884,8,4e7ecea4cc214a7993fb58a7,45.73588351374565,10.940261153321053,45.74015435496314,10.93589202977586,0.0,1.0,0.0,0.0,0.0,0.0,0.0,0.0,0.0,0.0
1393535343884,2,521e30f811d2a0d772b01f18,45.735599517822266,10.941692352294922,45.74015435496314,10.93589202977586,0.0,0.0,0.0,0.0,0.0,0.0,1.0,0.0,0.0,0.0
1393535343884,4,4e9c66974690c21335d501bb,45.73639360106852,10.942149550931708,45.74015435496314,10.93589202977586,0.0,0.0,0.0,0.0,0.0,0.0,0.0,1.0,0.0,0.0
1393535343884,1,4ea191ac6da1455cabfa0f11,45.741488,10.942433,45.74015435496314,10.93589202977586,0.0,1.0,0.0,0.0,0.0,0.0,0.0,0.0,0.0,0.0
1393535343884,1,4e6215b5c65b2dc89f74eb2e,45.74595843477146,10.943442847843315,45.74015435496314,10.93589202977586,0.0,0.0,0.0,0.0,1.0,0.0,0.0,0.0,0.0,0.0
1393535343884,26,4e4d5c22d4c083e964961764,45.73677167950246,10.94395799783189,45.73993587298489,10.948739073079608,0.0,0.0,0.0,0.0,0.0,0.0,0.0,1.0,0.0,0.0
1393535343884,19,4e183daaae6092c2764fa6f8,45.73985009887416,10.953784217618129,45.73993587298489,10.948739073079608,0.0,1.0,0.0,0.0,0.0,0.0,0.0,0.0,0.0,0.0
1393535343884,2,528780fa11d286383bbd961a,45.73887,10.948407,45.73993587298489,10.948739073079608,0.0,0.0,0.0,0.0,0.0,0.0,1.0,0.0,0.0,0.0
1393535343884,9,4e70ae2714950bb0d72ace30,45.7365013385223,10.951951605134907,45.73993587298489,10.948739073079608,0.0,0.0,0.0,0.0,0.0,0.0,1.0,0.0,0.0,0.0
1393535343884,18,4f9933a5e4b06ffc466f2de7,45.73700036119406,10.9460061124447,45.73993587298489,10.948739073079608,0.0,0.0,0.0,0.0,0.0,1.0,0.0,0.0,0.0,0.0
1393535343884,15,4e626a3545ddda35298f7be0,45.740199434002186,10.953124081521443,45.73993587298489,10.948739073079608,0.0,0.0,1.0,0.0,0.0,0.0,0.0,0.0,0.0,0.0
1393535343884,7,51d5a93e498e8230fa73b410,45.7386524509639,10.9459629748017,45.73993587298489,10.948739073079608,0.0,0.0,1.0,0.0,0.0,0.0,0.0,0.0,0.0,0.0
1393535343884,13,4f526c8ae4b07c31b35c7085,45.738255508046386,10.9464073502313,45.73993587298489,10.948739073079608,0.0,0.0,1.0,0.0,0.0,0.0,0.0,0.0,0.0,0.0
1393535343884,18,4e70eabfe4cd5c869434dbb4,45.73543653901992,10.94234122959963,45.73993587298489,10.948739073079608,0.0,1.0,0.0,0.0,0.0,0.0,0.0,0.0,0.0,0.0
1393535343884,4,5180c9b6498e49e7f32c9d92,45.737232,10.94742,45.73993587298489,10.948739073079608,0.0,0.0,0.0,0.0,0.0,1.0,0.0,0.0,0.0,0.0
1393535343884,5,5075c515e4b0e2c61e41d982,45.73558674213649,10.951584532610514,45.73993587298489,10.948739073079608,0.0,0.0,0.0,0.0,1.0,0.0,0.0,0.0,0.0,0.0
1393535343884,1,500139cae4b06407f693a41c,45.74034,10.954327,45.73993587298489,10.948739073079608,0.0,0.0,0.0,0.0,0.0,0.0,1.0,0.0,0.0,0.0
1393535343884,45,4e9ece797beb438c5e7359f7,45.73558674213649,10.951584532610514,45.73993587298489,10.948739073079608,0.0,0.0,0.0,0.0,1.0,0.0,0.0,0.0,0.0,0.0
1393535343884,5,4ea2dcfa93ad755e37224fe7,45.73573338706645,10.945881825344905,45.73993587298489,10.948739073079608,0.0,0.0,0.0,0.0,0.0,1.0,0.0,0.0,0.0,0.0
1393535343884,23,4e5b905d1f6e804280e09281,45.73671921337409,10.9398693295736,45.73993587298489,10.948739073079608,0.0,0.0,0.0,0.0,1.0,0.0,0.0,0.0,0.0,0.0
1393535343884,40,4e5c1e68a809216313fcc97f,45.73671921337409,10.9398693295736,45.73993587298489,10.948739073079608,0.0,0.0,0.0,0.0,1.0,0.0,0.0,0.0,0.0,0.0
1393535343884,16,4e5cbef5183883e00c0c54d9,45.73558674213649,10.951584532610514,45.73993587298489,10.948739073079608,0.0,0.0,0.0,0.0,1.0,0.0,0.0,0.0,0.0,0.0
1393535343884,1,4ea191ac6da1455cabfa0f11,45.741488,10.942433,45.73993587298489,10.948739073079608,0.0,1.0,0.0,0.0,0.0,0.0,0.0,0.0,0.0,0.0
1393535343884,4,4e8c621ae5e8c735f90697ca,45.73558674213649,10.951584532610514,45.73993587298489,10.948739073079608,0.0,0.0,0.0,0.0,1.0,0.0,0.0,0.0,0.0,0.0
1393535343884,18,4e75fcdde4cd3254378c3370,45.74131557052883,10.95847026013989,45.739715947278,10.96158596794331,0.0,1.0,0.0,0.0,0.0,0.0,0.0,0.0,0.0,0.0
1393535343884,20,51b2fb3a498e15fcf2d7b043,45.735347,10.956038,45.739715947278,10.96158596794331,0.0,1.0,0.0,0.0,0.0,0.0,0.0,0.0,0.0,0.0
1393535343884,51,4e61370bd164ddd5e53da17a,45.74091184559829,10.955389941984306,45.739715947278,10.96158596794331,0.0,0.0,1.0,0.0,0.0,0.0,0.0,0.0,0.0,0.0
1393535343884,28,4e3ff605d4c058f9dc24effd,45.740651,10.958667,45.739715947278,10.96158596794331,0.0,1.0,0.0,0.0,0.0,0.0,0.0,0.0,0.0,0.0
1393535343884,7,51a04fc8498e6dbb373717c4,45.73950821425044,10.965922509384455,45.739715947278,10.96158596794331,0.0,0.0,0.0,1.0,0.0,0.0,0.0,0.0,0.0,0.0
1393535343884,15,4e7eba0e30f8b6c3356e8afa,45.73865174338292,10.962829872613938,45.739715947278,10.96158596794331,0.0,0.0,0.0,0.0,0.0,0.0,1.0,0.0,0.0,0.0
1393535343884,10,4ebfa0052c5b252c19917fe3,45.740627505832656,10.958905501841633,45.739715947278,10.96158596794331,1.0,0.0,0.0,0.0,0.0,0.0,0.0,0.0,0.0,0.0
1393535343884,2,50b365e4498eee01f354cbc5,45.74126689892191,10.96216319757191,45.739715947278,10.96158596794331,1.0,0.0,0.0,0.0,0.0,0.0,0.0,0.0,0.0,0.0
1393535343884,7,4e9473dacc21f921aaff52c0,45.74062403872202,10.96323978252696,45.739715947278,10.96158596794331,1.0,0.0,0.0,0.0,0.0,0.0,0.0,0.0,0.0,0.0
1393535343884,13,4ece9e5d93ad987b4aff3dd2,45.737676332185984,10.95708032445509,45.739715947278,10.96158596794331,1.0,0.0,0.0,0.0,0.0,0.0,0.0,0.0,0.0,0.0
1393535343884,7,4fa51557e4b0d9052558e7c5,45.7364387512207,10.957164764404297,45.739715947278,10.96158596794331,0.0,0.0,0.0,0.0,0.0,1.0,0.0,0.0,0.0,0.0
1393535343884,9,4e565d8852b12ddfc1dfb82e,45.737125879247664,10.955821765185625,45.739715947278,10.96158596794331,0.0,0.0,0.0,0.0,0.0,1.0,0.0,0.0,0.0,0.0
1393535343884,4,4fdc8533e4b0d263e7842c4e,45.73558674213649,10.951584532610514,45.739715947278,10.96158596794331,0.0,0.0,0.0,0.0,1.0,0.0,0.0,0.0,0.0,0.0
1393535343884,8,4e6343a1c65b2dc89ffbc866,45.7361367,10.9568259,45.739715947278,10.96158596794331,0.0,0.0,0.0,0.0,0.0,0.0,1.0,0.0,0.0,0.0
1393535343884,5,4f9b20a1e4b0d2a3a864d4aa,45.736101255214145,10.956641714974248,45.739715947278,10.96158596794331,0.0,0.0,0.0,0.0,0.0,0.0,0.0,1.0,0.0,0.0
1393535343884,6,4e647b461f6ef7d07b954044,45.7357793,10.956936,45.739715947278,10.96158596794331,0.0,0.0,0.0,0.0,0.0,0.0,1.0,0.0,0.0,0.0
1393535343884,9,4e666b7f7d8b7bfbc419e817,45.73939540731877,10.95838664180056,45.739715947278,10.96158596794331,0.0,0.0,0.0,0.0,0.0,0.0,0.0,1.0,0.0,0.0
1393535343884,0,51790b85e4b0329bfea7c550,45.73625564575195,10.956822395324707,45.739715947278,10.96158596794331,0.0,1.0,0.0,0.0,0.0,0.0,0.0,0.0,0.0,0.0
1393535343884,488,4f6f8d79e4b0e42844448680,45.742554727038346,10.978603469441895,45.73949457788628,10.974432713391469,0.0,0.0,0.0,0.0,1.0,0.0,0.0,0.0,0.0,0.0
1393535343884,26,50967941e4b0b68d69201ea7,45.74066276215634,10.978590757073338,45.73949457788628,10.974432713391469,0.0,0.0,1.0,0.0,0.0,0.0,0.0,0.0,0.0,0.0
1393535343884,32,4e2c204f18387cce067a7955,45.742743248471335,10.968376127232345,45.73949457788628,10.974432713391469,0.0,1.0,0.0,0.0,0.0,0.0,0.0,0.0,0.0,0.0
1393535343884,2,501e9008e4b071e497cd7848,45.740661,10.976992,45.73949457788628,10.974432713391469,0.0,0.0,0.0,1.0,0.0,0.0,0.0,0.0,0.0,0.0
1393535343884,20,51f4aad4498e1f4d1889e4fd,45.743466688594566,10.983308013850897,45.7392717648538,10.987279308448645,0.0,1.0,0.0,0.0,0.0,0.0,0.0,0.0,0.0,0.0
1393535343884,0,521f103dbce63e3b96e33742,45.750830858285305,10.90541124343872,45.74958272482007,10.910504448309839,0.0,0.0,1.0,0.0,0.0,0.0,0.0,0.0,0.0,0.0
1393535343884,1,4e6215b5c65b2dc89f74eb2e,45.74595843477146,10.943442847843315,45.74914995721832,10.93620309889899,0.0,0.0,0.0,0.0,1.0,0.0,0.0,0.0,0.0,0.0
1393535343884,72,4d70eb5cc7f8224beeceb6fb,45.74464677575607,10.965642929077148,45.748711412728284,10.96190115928541,0.0,0.0,1.0,0.0,0.0,0.0,0.0,0.0,0.0,0.0
1393535343884,159,4e0f66fe483bc2b5f48b92a9,45.74496778093511,10.976222274457607,45.748489974259165,10.974749965712284,0.0,0.0,0.0,1.0,0.0,0.0,0.0,0.0,0.0,0.0
1393535343884,18,5115de11e4b05512e5bba090,45.745380623708094,10.97603262655082,45.748489974259165,10.974749965712284,0.0,0.0,0.0,1.0,0.0,0.0,0.0,0.0,0.0,0.0
1393535343884,2,523bdf0e498e46df38d7d1ae,45.748534006276856,10.990331940184966,45.748267091699354,10.987598621660238,1.0,0.0,0.0,0.0,0.0,0.0,0.0,0.0,0.0,0.0
1393535343884,39,4c4c47d546240f476f9c8ff4,45.74701746839976,10.982322682868784,45.748267091699354,10.987598621660238,0.0,0.0,1.0,0.0,0.0,0.0,0.0,0.0,0.0,0.0
1393535343884,2,510d1bace4b0a7d13b1461e2,45.7505989074707,10.985696792602539,45.748267091699354,10.987598621660238,0.0,0.0,0.0,0.0,0.0,0.0,1.0,0.0,0.0,0.0
1393535343884,1,515d3cade4b0637c991c7eff,45.752312,10.990682,45.748267091699354,10.987598621660238,0.0,0.0,0.0,0.0,0.0,0.0,1.0,0.0,0.0,0.0
1393535343884,3,4fb29cdae4b008e1d7691211,45.75179342554414,10.982189770909988,45.748267091699354,10.987598621660238,0.0,0.0,0.0,0.0,1.0,0.0,0.0,0.0,0.0,0.0
1393535343884,3,4fcd06d4e4b05a5ebd3f518a,45.75179342554414,10.982189770909988,45.748267091699354,10.987598621660238,0.0,0.0,0.0,0.0,1.0,0.0,0.0,0.0,0.0,0.0
1393535343884,1,4f87d2bae4b013f1738caeb7,45.7507774,10.9852295,45.748267091699354,10.987598621660238,0.0,0.0,0.0,0.0,0.0,0.0,0.0,0.0,1.0,0.0
1393535343884,1,4eb010160aafcac7e552e393,45.75179342554414,10.982189770909988,45.748267091699354,10.987598621660238,0.0,0.0,0.0,0.0,1.0,0.0,0.0,0.0,0.0,0.0
1393535343884,8,5038ab17e4b0d3a793e6ba2e,45.74526822614159,11.170952545346722,45.74499513171847,11.16746345826035,0.0,0.0,1.0,0.0,0.0,0.0,0.0,0.0,0.0,0.0
1393535343884,3,502e1979e4b01a4fc0d89ea2,45.74541,11.167419,45.74499513171847,11.16746345826035,0.0,1.0,0.0,0.0,0.0,0.0,0.0,0.0,0.0,0.0
1393535343884,7,5030d777e4b07f473a79e256,45.75986600651451,10.878407379682944,45.75921696442775,10.872256287626211,0.0,0.0,1.0,0.0,0.0,0.0,0.0,0.0,0.0,0.0
1393535343884,6,4fb5019ee4b015cb223f401b,45.76263237158911,10.904014751344372,45.75879273045681,10.897959933901031,0.0,0.0,1.0,0.0,0.0,0.0,0.0,0.0,0.0,0.0
1393535343884,4,4e5a6cb918a8c20475189c06,45.758324,10.898345,45.75879273045681,10.897959933901031,0.0,0.0,1.0,0.0,0.0,0.0,0.0,0.0,0.0,0.0
1393535343884,79,50f430bde4b0966177ac8138,45.75065537797626,10.993916346246962,45.75726240258233,10.987918086326687,0.0,0.0,0.0,0.0,1.0,0.0,0.0,0.0,0.0,0.0
1393535343884,1,528c69de11d21d55318f3384,45.75867462158203,10.992735862731934,45.75726240258233,10.987918086326687,0.0,0.0,0.0,0.0,0.0,0.0,1.0,0.0,0.0,0.0
1393535343884,10,50fec69ae4b084af6edafb4c,45.75440752351231,10.994206998390181,45.75726240258233,10.987918086326687,1.0,0.0,0.0,0.0,0.0,0.0,0.0,0.0,0.0,0.0
1393535343884,1081,4dbd97d3a86e0e98a1fe6ac4,45.75922993112589,11.004266738891602,45.75703800597668,11.000768652597921,0.0,0.0,1.0,0.0,0.0,0.0,0.0,0.0,0.0,0.0
1393535343884,499,4c9f2188031337043f8a6fd5,45.75908546046461,11.001802307861368,45.75703800597668,11.000768652597921,0.0,1.0,0.0,0.0,0.0,0.0,0.0,0.0,0.0,0.0
1393535343884,534,4bd27576462cb713d889dc07,45.75899942492425,10.996035646931844,45.75703800597668,11.000768652597921,0.0,0.0,0.0,1.0,0.0,0.0,0.0,0.0,0.0,0.0
1393535343884,49,51965469498e35404fd8e1b8,45.75550651129196,11.003424943339352,45.75703800597668,11.000768652597921,0.0,0.0,0.0,0.0,0.0,0.0,0.0,0.0,1.0,0.0
1393535343884,51,4dc4067818508d58a4b7f95e,45.758911171641024,11.001897270457281,45.75703800597668,11.000768652597921,1.0,0.0,0.0,0.0,0.0,0.0,0.0,0.0,0.0,0.0
1393535343884,3,52f3daa111d286cccbed8458,45.75616455078125,10.999981880187988,45.75703800597668,11.000768652597921,0.0,0.0,0.0,0.0,0.0,0.0,1.0,0.0,0.0,0.0
1393535343884,70,4e46676962845e1d3c906cb8,45.75810713362828,11.005511283874512,45.75703800597668,11.000768652597921,0.0,0.0,0.0,0.0,0.0,0.0,0.0,1.0,0.0,0.0
1393535343884,15,513127f4e4b01a0b4b8c8baf,45.756141662597656,10.998642921447754,45.75703800597668,11.000768652597921,0.0,1.0,0.0,0.0,0.0,0.0,0.0,0.0,0.0,0.0
1393535343884,70,4fc26e2fe4b07e3cd9dc9e20,45.7564097424497,11.001785753836337,45.75703800597668,11.000768652597921,0.0,0.0,1.0,0.0,0.0,0.0,0.0,0.0,0.0,0.0
1393535343884,1,5308fe26498e1b1827c37d56,45.7585762879406,11.004357640958965,45.75703800597668,11.000768652597921,0.0,0.0,0.0,0.0,0.0,1.0,0.0,0.0,0.0,0.0
1393535343884,33,4e57bfdb45dd1de4d98b067a,45.75788567285685,11.00555439126786,45.75703800597668,11.000768652597921,1.0,0.0,0.0,0.0,0.0,0.0,0.0,0.0,0.0,0.0
1393535343884,1,52e3ad7c498ea610965bf106,45.756899,11.001252,45.75703800597668,11.000768652597921,0.0,1.0,0.0,0.0,0.0,0.0,0.0,0.0,0.0,0.0
1393535343884,12,514b3743e4b0809dcce21f09,45.75828697658739,11.00564807705626,45.75703800597668,11.000768652597921,0.0,0.0,0.0,0.0,0.0,0.0,1.0,0.0,0.0,0.0
1393535343884,21,50b7a3bbe4b062685bca43c9,45.75748862066382,10.999987401573117,45.75703800597668,11.000768652597921,1.0,0.0,0.0,0.0,0.0,0.0,0.0,0.0,0.0,0.0
1393535343884,21,4e4039dc18a83d5b2868e43c,45.75935094954386,11.003083620851934,45.75703800597668,11.000768652597921,0.0,0.0,1.0,0.0,0.0,0.0,0.0,0.0,0.0,0.0
1393535343884,88,4e5e5f07aeb78833bb8b52e7,45.75890159153024,11.002077791571425,45.75703800597668,11.000768652597921,1.0,0.0,0.0,0.0,0.0,0.0,0.0,0.0,0.0,0.0
1393535343884,57,4c20b7448082d13ad70cf82a,45.75748907606035,10.998310285027506,45.75703800597668,11.000768652597921,1.0,0.0,0.0,0.0,0.0,0.0,0.0,0.0,0.0,0.0
1393535343884,20,4e65bf992271573ad905cead,45.75851824359032,10.996393672319263,45.75703800597668,11.000768652597921,0.0,0.0,0.0,0.0,0.0,0.0,1.0,0.0,0.0,0.0
1393535343884,16,4eb1b996d3e370c913dd42d6,45.75936554568649,11.006204026530853,45.75703800597668,11.000768652597921,0.0,1.0,0.0,0.0,0.0,0.0,0.0,0.0,0.0,0.0
1393535343884,59,4e5e5df1e4cdfc603eda0b27,45.759316646100714,10.998223392603743,45.75703800597668,11.000768652597921,0.0,1.0,0.0,0.0,0.0,0.0,0.0,0.0,0.0,0.0
1393535343884,60,50f8f23ce4b024a67b95c60c,45.75800273158815,11.00365892103008,45.75703800597668,11.000768652597921,0.0,1.0,0.0,0.0,0.0,0.0,0.0,0.0,0.0,0.0
1393535343884,35,4e32df68a8097f47f4a2cd76,45.75890057953495,11.005082130432129,45.75703800597668,11.000768652597921,1.0,0.0,0.0,0.0,0.0,0.0,0.0,0.0,0.0,0.0
1393535343884,81,50f8f1bae4b0e18948159e38,45.75679181486512,11.001471430250731,45.75703800597668,11.000768652597921,0.0,0.0,0.0,0.0,0.0,0.0,0.0,0.0,1.0,0.0
1393535343884,9,507978a2e4b08ac08ddf6af3,45.755678559212576,11.003517674040774,45.75703800597668,11.000768652597921,0.0,0.0,0.0,0.0,0.0,1.0,0.0,0.0,0.0,0.0
1393535343884,1,52b077f311d287ee468a3667,45.75408935546875,10.99726390838623,45.75703800597668,11.000768652597921,1.0,0.0,0.0,0.0,0.0,0.0,0.0,0.0,0.0,0.0
1393535343884,4,4d605668865a224b3803aa85,45.75912592113127,11.00207464663952,45.75703800597668,11.000768652597921,0.0,0.0,0.0,1.0,0.0,0.0,0.0,0.0,0.0,0.0
1393535343884,2,51220398e4b03e7e2494ae52,45.759334564208984,11.002715110778809,45.75703800597668,11.000768652597921,0.0,0.0,0.0,0.0,0.0,0.0,1.0,0.0,0.0,0.0
1393535343884,23,51d15cf0498e00f51895fcff,45.76109307650308,11.003755400583268,45.75703800597668,11.000768652597921,0.0,0.0,0.0,0.0,0.0,0.0,1.0,0.0,0.0,0.0
1393535343884,22,4eb4243ddab4fe5111148c91,45.75914854319928,11.004443547382072,45.75703800597668,11.000768652597921,0.0,0.0,0.0,0.0,0.0,0.0,0.0,1.0,0.0,0.0
1393535343884,73,4e5e5d791838f7255274d902,45.75710008047017,10.999671549012714,45.75703800597668,11.000768652597921,0.0,0.0,1.0,0.0,0.0,0.0,0.0,0.0,0.0,0.0
1393535343884,16,4c4947d020ab1b8dba2c9016,45.756980570765776,11.00756585597992,45.75681216491938,11.013619066349305,0.0,0.0,0.0,0.0,0.0,0.0,0.0,1.0,0.0,0.0
1393535343884,1,527bcaf711d22ee317ceefd8,45.758754843437124,11.009239736866322,45.75681216491938,11.013619066349305,0.0,0.0,0.0,0.0,1.0,0.0,0.0,0.0,0.0,0.0
1393535343884,2,51f6473f498eebd2a3826148,45.758195,11.008784,45.75681216491938,11.013619066349305,0.0,0.0,1.0,0.0,0.0,0.0,0.0,0.0,0.0,0.0
1393535343884,15,4e0f7d65c65ba20da22aa92e,45.75878707123497,11.008363751165763,45.75681216491938,11.013619066349305,0.0,0.0,1.0,0.0,0.0,0.0,0.0,0.0,0.0,0.0
1393535343884,7,4eaaf01bd3e3846cbcdda432,45.760154,11.008037,45.75681216491938,11.013619066349305,0.0,0.0,1.0,0.0,0.0,0.0,0.0,0.0,0.0,0.0
1393535343884,9,4f53ea89e4b0ddd8f8b78f94,45.75873437980286,11.007749483476443,45.75681216491938,11.013619066349305,0.0,1.0,0.0,0.0,0.0,0.0,0.0,0.0,0.0,0.0
1393535343884,0,51e5b76a498e634b4e8202f3,45.758754843437124,11.009239736866322,45.75681216491938,11.013619066349305,0.0,0.0,0.0,0.0,1.0,0.0,0.0,0.0,0.0,0.0
1393535343884,0,51e5b789498e6eecdcce812f,45.758754843437124,11.009239736866322,45.75681216491938,11.013619066349305,0.0,0.0,0.0,0.0,1.0,0.0,0.0,0.0,0.0,0.0
1393535343884,0,51e5b792498e8bf315b5ccc0,45.758754843437124,11.009239736866322,45.75681216491938,11.013619066349305,0.0,0.0,0.0,0.0,1.0,0.0,0.0,0.0,0.0,0.0
1393535343884,0,51e5b72a498efc97bbf0e859,45.758754843437124,11.009239736866322,45.75681216491938,11.013619066349305,0.0,0.0,0.0,0.0,1.0,0.0,0.0,0.0,0.0,0.0
1393535343884,0,51e5b741498ee17479a91e85,45.758754843437124,11.009239736866322,45.75681216491938,11.013619066349305,0.0,0.0,0.0,0.0,1.0,0.0,0.0,0.0,0.0,0.0
1393535343884,0,51e5b74a498e3c0d34a7302b,45.758754843437124,11.009239736866322,45.75681216491938,11.013619066349305,0.0,0.0,0.0,0.0,1.0,0.0,0.0,0.0,0.0,0.0
1393535343884,0,51e5b75b498e252917bfcffa,45.758754843437124,11.009239736866322,45.75681216491938,11.013619066349305,0.0,0.0,0.0,0.0,1.0,0.0,0.0,0.0,0.0,0.0
1393535343884,0,51e5b776498eebd7e262a280,45.758754843437124,11.009239736866322,45.75681216491938,11.013619066349305,0.0,0.0,0.0,0.0,1.0,0.0,0.0,0.0,0.0,0.0
1393535343884,0,527bcae911d295bc9acfd34a,45.758754843437124,11.009239736866322,45.75681216491938,11.013619066349305,0.0,0.0,0.0,0.0,1.0,0.0,0.0,0.0,0.0,0.0
1393535343884,0,527bcb0111d2ef3d12075a68,45.758754843437124,11.009239736866322,45.75681216491938,11.013619066349305,0.0,0.0,0.0,0.0,1.0,0.0,0.0,0.0,0.0,0.0
1393535343884,0,51e5b704498ebb118ee480a5,45.758754843437124,11.009239736866322,45.75681216491938,11.013619066349305,0.0,0.0,0.0,0.0,1.0,0.0,0.0,0.0,0.0,0.0
1393535343884,4,4d910fc6521760fc7f7c0f93,45.759328,11.007393,45.75681216491938,11.013619066349305,1.0,0.0,0.0,0.0,0.0,0.0,0.0,0.0,0.0,0.0
1393535343884,0,51e5b712498e18d175d71e29,45.758754843437124,11.009239736866322,45.75681216491938,11.013619066349305,0.0,0.0,0.0,0.0,1.0,0.0,0.0,0.0,0.0,0.0
1393535343884,0,4f01b75e0e01089c574ff8eb,45.754433,11.042189,45.75635614963005,11.039319432387195,0.0,0.0,0.0,0.0,0.0,0.0,0.0,1.0,0.0,0.0
1393535343884,22,4fe17f1ee4b081004e5be85f,45.758121380731154,11.145433130542854,45.75447431954441,11.1421146005112,0.0,0.0,1.0,0.0,0.0,0.0,0.0,0.0,0.0,0.0
1393535343884,2,5027f442e4b0e6861f6e5f8e,45.7553545188059,11.142013937453832,45.75447431954441,11.1421146005112,0.0,0.0,0.0,0.0,1.0,0.0,0.0,0.0,0.0,0.0
1393535343884,103,4c7a453493ef236a4622b20f,45.757583763290235,11.163377968061534,45.753989421664926,11.167811779500875,0.0,0.0,0.0,0.0,0.0,0.0,0.0,1.0,0.0,0.0
1393535343884,23,4eaeada3be7bd46a7bf81827,45.757378662586326,11.172181944965091,45.753989421664926,11.167811779500875,0.0,0.0,1.0,0.0,0.0,0.0,0.0,0.0,0.0,0.0
1393535343884,6,4cd6b29976ab721e4d4d746a,45.757561,11.163405,45.753989421664926,11.167811779500875,0.0,1.0,0.0,0.0,0.0,0.0,0.0,0.0,0.0,0.0
1393535343884,2,4e8d574b77c86de948b19eb3,45.749615,11.180176,45.753744806934286,11.180660121673661,0.0,0.0,1.0,0.0,0.0,0.0,0.0,0.0,0.0,0.0
1393535343884,1,51587537e4b01d0ccdcf607c,45.758183,11.185506,45.753744806934286,11.180660121673661,0.0,1.0,0.0,0.0,0.0,0.0,0.0,0.0,0.0,0.0
1393535343884,1,523e0b8311d2f75816f1a4a8,45.754147,11.18474,45.753744806934286,11.180660121673661,0.0,0.0,0.0,0.0,0.0,0.0,0.0,1.0,0.0,0.0
1393535343884,0,50059b12e4b07c19de45b704,45.77009434165,10.891985391322027,45.76800140874921,10.885411293658187,0.0,0.0,0.0,0.0,1.0,0.0,0.0,0.0,0.0,0.0
1393535343884,3,51d86188498e73f7b02cfb0d,45.76987310807854,10.898300207931866,45.767788502922315,10.898265108378695,0.0,1.0,0.0,0.0,0.0,0.0,0.0,0.0,0.0,0.0
1393535343884,26,51433b1fe4b09273c5b4edd8,45.768421613891654,11.000731230665345,45.766033230874285,11.001090331562356,0.0,0.0,1.0,0.0,0.0,0.0,0.0,0.0,0.0,0.0
1393535343884,35,506f3b75e4b0748e0536838e,45.76806404264823,11.001471786720602,45.766033230874285,11.001090331562356,0.0,1.0,0.0,0.0,0.0,0.0,0.0,0.0,0.0,0.0
1393535343884,22,4f056a705c5c4a361a8ab570,45.76331458190812,11.005922425066895,45.766033230874285,11.001090331562356,1.0,0.0,0.0,0.0,0.0,0.0,0.0,0.0,0.0,0.0
1393535343884,11,4dbab82affcbcd485661eede,45.76303972021039,11.004707701299138,45.766033230874285,11.001090331562356,1.0,0.0,0.0,0.0,0.0,0.0,0.0,0.0,0.0,0.0
1393535343884,11,50fff390e4b032d88e4117af,45.76343536376953,11.006205558776855,45.766033230874285,11.001090331562356,1.0,0.0,0.0,0.0,0.0,0.0,0.0,0.0,0.0,0.0
1393535343884,1,5236bf8f11d24cf7a827fc6a,45.7625639,11.0051732,45.766033230874285,11.001090331562356,0.0,0.0,1.0,0.0,0.0,0.0,0.0,0.0,0.0,0.0
1393535343884,1,51438fe1e4b0da66d143edee,45.769227,11.000633,45.766033230874285,11.001090331562356,0.0,0.0,0.0,0.0,1.0,0.0,0.0,0.0,0.0,0.0
1393535343884,1,4fbf3b77e4b0d1cc9d33baad,45.7666,11.0007,45.766033230874285,11.001090331562356,1.0,0.0,0.0,0.0,0.0,0.0,0.0,0.0,0.0,0.0
1393535343884,2,4dccef821f6eb122705496d0,45.76913625521747,11.001101843473878,45.766033230874285,11.001090331562356,0.0,0.0,0.0,0.0,1.0,0.0,0.0,0.0,0.0,0.0
1393535343884,1,4de0efe718380dc4dd3b8233,45.769544,11.004572,45.766033230874285,11.001090331562356,0.0,0.0,1.0,0.0,0.0,0.0,0.0,0.0,0.0,0.0
1393535343884,409,4de5ecd1d164804164937003,45.76852582638607,11.009631156921387,45.76580731934497,11.013942807979065,0.0,0.0,0.0,0.0,0.0,0.0,1.0,0.0,0.0,0.0
1393535343884,24,520cd40e11d23133975a50cd,45.758754843437124,11.009239736866322,45.76580731934497,11.013942807979065,0.0,0.0,0.0,0.0,1.0,0.0,0.0,0.0,0.0,0.0
1393535343884,18,4fba31eee4b05dd0d70f8b2d,45.76910950957259,11.00867929352651,45.76580731934497,11.013942807979065,0.0,0.0,0.0,0.0,0.0,0.0,1.0,0.0,0.0,0.0
1393535343884,1,523efbbe11d241f559576318,45.767564,11.135629,45.76370910252081,11.129608067153969,0.0,0.0,1.0,0.0,0.0,0.0,0.0,0.0,0.0,0.0
1393535343884,12,4ff96f58e4b0aeae9f67a0f3,45.76788874724152,11.148451447042381,45.76346874449625,11.142458963761698,0.0,0.0,1.0,0.0,0.0,0.0,0.0,0.0,0.0,0.0
1393535343884,2,4f82b217e4b0a458bc183725,45.7606573,11.1578512,45.76322694208078,11.155309697018378,1.0,0.0,0.0,0.0,0.0,0.0,0.0,0.0,0.0,0.0
1393535343884,43,4dfdcc27149599f28fcf6341,45.76060039150484,11.172492108678508,45.76298369532256,11.168160265947925,0.0,0.0,1.0,0.0,0.0,0.0,0.0,0.0,0.0,0.0
1393535343884,14,4fd23d7ae4b0f84817cfc1de,45.76029406298692,11.173061633472228,45.76298369532256,11.168160265947925,0.0,1.0,0.0,0.0,0.0,0.0,0.0,0.0,0.0,0.0
1393535343884,19,51b42114498edc9cb38c7082,45.76727379847328,11.17782620455454,45.762739004270045,11.18101066957434,0.0,0.0,1.0,0.0,0.0,0.0,0.0,0.0,0.0,0.0
1393535343884,1,51587537e4b01d0ccdcf607c,45.758183,11.185506,45.762739004270045,11.18101066957434,0.0,1.0,0.0,0.0,0.0,0.0,0.0,0.0,0.0,0.0
1393535343884,24,4e4fd9e9c65bb313ba8b60d9,45.77963096807028,10.943101644515991,45.77613666873121,10.937137191917937,0.0,0.0,1.0,0.0,0.0,0.0,0.0,0.0,0.0,0.0
1393535343884,9,4e7b2ab5483bf10366aa8f29,45.775411,10.939151,45.77613666873121,10.937137191917937,0.0,1.0,0.0,0.0,0.0,0.0,0.0,0.0,0.0,0.0
1393535343884,3,5159cbd9e4b0edb0204c65e7,45.7727,10.949296,45.77591791391275,10.94999248569237,0.0,1.0,0.0,0.0,0.0,0.0,0.0,0.0,0.0,0.0
1393535343884,15,4f2d36aae4b0c1a81873ef62,45.77752449221059,10.949244348376936,45.77591791391275,10.94999248569237,0.0,0.0,0.0,0.0,0.0,0.0,0.0,1.0,0.0,0.0
1393535343884,1,52c54cf7498e76f16494f109,45.775854,10.959444,45.77569771356487,10.962847630679125,0.0,1.0,0.0,0.0,0.0,0.0,0.0,0.0,0.0,0.0
1393535343884,19,51ff9161498ee764c7218f92,45.77505905761853,11.001430655075906,45.775028439785075,11.001412163135875,0.0,0.0,0.0,1.0,0.0,0.0,0.0,0.0,0.0,0.0
1393535343884,2,4dccef821f6eb122705496d0,45.76913625521747,11.001101843473878,45.775028439785075,11.001412163135875,0.0,0.0,0.0,0.0,1.0,0.0,0.0,0.0,0.0,0.0
1393535343884,263,4e1d812c6284d5831b3ad282,45.771908572160115,11.010949478807232,45.7748024577613,11.01426670319483,0.0,0.0,1.0,0.0,0.0,0.0,0.0,0.0,0.0,0.0
1393535343884,15,512240bde4b0b2c49ec68d34,45.7741307390182,11.013281078766022,45.7748024577613,11.01426670319483,0.0,0.0,0.0,0.0,0.0,0.0,1.0,0.0,0.0,0.0
1393535343884,1,4e77508bfa76059701d2361f,45.77475021556939,11.013090961253745,45.7748024577613,11.01426670319483,0.0,1.0,0.0,0.0,0.0,0.0,0.0,0.0,0.0,0.0
1393535343884,5,50f96c19e4b04bfe9bd53155,45.77342539640752,11.012898137777091,45.7748024577613,11.01426670319483,0.0,0.0,0.0,0.0,0.0,0.0,1.0,0.0,0.0,0.0
1393535343884,7,4ec6b1b202d5888e9ae976f4,45.777503967285156,11.011448860168457,45.7748024577613,11.01426670319483,0.0,0.0,0.0,0.0,0.0,1.0,0.0,0.0,0.0,0.0
1393535343884,1,50928a02e4b07264712c364e,45.77837915766278,11.004697402211223,45.7748024577613,11.01426670319483,0.0,0.0,0.0,0.0,1.0,0.0,0.0,0.0,0.0,0.0
1393535343884,1,50363f96e4b092ec435fe618,45.77869415283203,11.011957168579102,45.7748024577613,11.01426670319483,0.0,0.0,0.0,0.0,0.0,0.0,1.0,0.0,0.0,0.0
1393535343884,2,521fbe1d11d2c4e653c1294c,45.777529,11.10721,45.77318011755437,11.104244125953395,0.0,0.0,0.0,0.0,0.0,1.0,0.0,0.0,0.0,0.0
1393535343884,8,5054797ee4b01eeee58325c0,45.77698603048192,11.123088909163846,45.77294257435895,11.117097409242028,0.0,0.0,1.0,0.0,0.0,0.0,0.0,0.0,0.0,0.0
1393535343884,10,4c710c15d7fab1f7ba3560c9,45.77702041926011,11.122902934499626,45.77294257435895,11.117097409242028,0.0,0.0,0.0,1.0,0.0,0.0,0.0,0.0,0.0,0.0
1393535343884,1,4e8853b52c5b066afc0a158d,45.771107,11.132152,45.77270358622706,11.129950531037586,0.0,0.0,1.0,0.0,0.0,0.0,0.0,0.0,0.0,0.0
1393535343884,12,4ff96f58e4b0aeae9f67a0f3,45.76788874724152,11.148451447042381,45.772463153206324,11.14280349036326,0.0,0.0,1.0,0.0,0.0,0.0,0.0,0.0,0.0,0.0
1393535343884,19,51b42114498edc9cb38c7082,45.76727379847328,11.17782620455454,45.77173318529148,11.181361383754087,0.0,0.0,1.0,0.0,0.0,0.0,0.0,0.0,0.0,0.0
1393535343884,25,4e43d4b9a809d4ed1bb42891,45.78780905572025,10.87218713823484,45.78620463167984,10.873159858711336,0.0,0.0,0.0,1.0,0.0,0.0,0.0,0.0,0.0,0.0
1393535343884,10,4e43e0801838e44e8985060d,45.78787907046312,10.872433623286925,45.78620463167984,10.873159858711336,0.0,1.0,0.0,0.0,0.0,0.0,0.0,0.0,0.0,0.0
1393535343884,5,4e4a471d8877bebe848b3f39,45.785934,10.886339,45.7859930391454,10.886017947242685,0.0,0.0,1.0,0.0,0.0,0.0,0.0,0.0,0.0,0.0
1393535343884,51,4e479b50fa76a07fde69822f,45.78659614771088,10.917568584046464,45.78556551553335,10.911733691380872,0.0,0.0,1.0,0.0,0.0,0.0,0.0,0.0,0.0,0.0
1393535343884,7,4d5fdef41ee8721ec598a321,45.781582,10.912823,45.78556551553335,10.911733691380872,0.0,0.0,1.0,0.0,0.0,0.0,0.0,0.0,0.0,0.0
1393535343884,10,4f0abc9ee4b06fab1b6cfad7,45.78501767056551,10.925284590330815,45.78534958454097,10.924591345030368,0.0,1.0,0.0,0.0,0.0,0.0,0.0,0.0,0.0,0.0
1393535343884,13,4e6364f5b61cd78088f633ee,45.788599858532194,10.921315560462379,45.78534958454097,10.924591345030368,0.0,1.0,0.0,0.0,0.0,0.0,0.0,0.0,0.0,0.0
1393535343884,21,4e493466227128e1e8ee29eb,45.78644936515464,10.919290552480689,45.78534958454097,10.924591345030368,0.0,0.0,1.0,0.0,0.0,0.0,0.0,0.0,0.0,0.0
1393535343884,28,4c55d5c7f5f3d13a06b071fc,45.78631467130477,10.919607746900475,45.78534958454097,10.924591345030368,0.0,0.0,0.0,1.0,0.0,0.0,0.0,0.0,0.0,0.0
1393535343884,3,520dfb5a11d2faba0c01c067,45.784972,10.925336,45.78534958454097,10.924591345030368,0.0,0.0,1.0,0.0,0.0,0.0,0.0,0.0,0.0,0.0
1393535343884,2,51e317ba498ed2d915d6b7d8,45.788509368896484,10.920209884643555,45.78534958454097,10.924591345030368,0.0,0.0,1.0,0.0,0.0,0.0,0.0,0.0,0.0,0.0
1393535343884,10,4e7f067002d55a46eafb8d99,45.7877784123717,10.918515494844796,45.78534958454097,10.924591345030368,0.0,0.0,1.0,0.0,0.0,0.0,0.0,0.0,0.0,0.0
1393535343884,2,515ff6f5498e5d9d9bdcbe9d,45.786339,10.919483,45.78534958454097,10.924591345030368,0.0,1.0,0.0,0.0,0.0,0.0,0.0,0.0,0.0,0.0
1393535343884,1,4c5845f1cc96c9b680d07a2e,45.788735,10.921138,45.78534958454097,10.924591345030368,0.0,0.0,1.0,0.0,0.0,0.0,0.0,0.0,0.0,0.0
1393535343884,123,4d3c3d72fb4c548163bad214,45.7817415232144,10.942286072682407,45.78513220748167,10.937448851762019,0.0,0.0,0.0,0.0,0.0,1.0,0.0,0.0,0.0,0.0
1393535343884,6,513b669ee4b0ab90b7dc9d2e,45.78125,10.942420959472656,45.78513220748167,10.937448851762019,0.0,0.0,0.0,1.0,0.0,0.0,0.0,0.0,0.0,0.0
1393535343884,3,521df3967e487efc9b6a0562,45.781119966492525,10.941073894500732,45.78513220748167,10.937448851762019,0.0,0.0,1.0,0.0,0.0,0.0,0.0,0.0,0.0,0.0
1393535343884,4,52b5d3ff498e25b1013fbe0d,45.782716,10.942437,45.78513220748167,10.937448851762019,0.0,0.0,0.0,1.0,0.0,0.0,0.0,0.0,0.0,0.0
1393535343884,11,4e593df352b1b78b819a36d7,45.78110722452188,10.941577917420595,45.78513220748167,10.937448851762019,0.0,1.0,0.0,0.0,0.0,0.0,0.0,0.0,0.0,0.0
1393535343884,12,501cfd03e4b0b1c509a3eb85,45.78753270249016,10.940600868859722,45.78513220748167,10.937448851762019,0.0,0.0,1.0,0.0,0.0,0.0,0.0,0.0,0.0,0.0
1393535343884,24,4e5931b5d4c0ba8c119a991c,45.782589748368615,10.94258906887424,45.78513220748167,10.937448851762019,0.0,0.0,0.0,1.0,0.0,0.0,0.0,0.0,0.0,0.0
1393535343884,1,51083c79e4b08bc09292cacf,45.782509,10.942495,45.78513220748167,10.937448851762019,0.0,1.0,0.0,0.0,0.0,0.0,0.0,0.0,0.0,0.0
1393535343884,0,521df1ce7e487efc9b68fa61,45.78069347352075,10.9458589553833,45.78491338439876,10.95030621059733,0.0,0.0,1.0,0.0,0.0,0.0,0.0,0.0,0.0,0.0
1393535343884,56,4c2b60928abca593040b0020,45.786296494705354,11.012207837792143,45.783797580167374,11.014590752086466,0.0,0.0,0.0,0.0,0.0,1.0,0.0,0.0,0.0,0.0
1393535343884,6,51f309ca498ecc3ab454eae0,45.779817670636994,11.015266590080737,45.783797580167374,11.014590752086466,0.0,0.0,0.0,1.0,0.0,0.0,0.0,0.0,0.0,0.0
1393535343884,2,52ec9da7498e3e1e1edeac78,45.78637883759906,11.011484597705808,45.783797580167374,11.014590752086466,0.0,0.0,0.0,0.0,0.0,1.0,0.0,0.0,0.0,0.0
1393535343884,65,501e644ae4b00e1d0956c9e6,45.78241853388368,11.018038589992964,45.783797580167374,11.014590752086466,0.0,0.0,0.0,0.0,1.0,0.0,0.0,0.0,0.0,0.0
1393535343884,7,4fa4143ee4b0fd4c3dfb9c68,45.78603982622561,11.011453769736658,45.783797580167374,11.014590752086466,1.0,0.0,0.0,0.0,0.0,0.0,0.0,0.0,0.0,0.0
1393535343884,13,4e4ffae8b61cf637a4fce005,45.786481370257505,11.020037348498896,45.783797580167374,11.014590752086466,0.0,0.0,0.0,0.0,1.0,0.0,0.0,0.0,0.0,0.0
1393535343884,7,5038d025e4b0b15ca56afe7f,45.7784,11.105036,45.782174733731196,11.104582624632915,0.0,0.0,0.0,0.0,0.0,1.0,0.0,0.0,0.0,0.0
1393535343884,3,5038d4dee4b03509a991d9f6,45.779616,11.105198,45.782174733731196,11.104582624632915,0.0,0.0,0.0,1.0,0.0,0.0,0.0,0.0,0.0,0.0
1393535343884,1,5301d441498e4c591c8fabb9,45.782821,11.119146,45.7819371164161,11.117437971805796,0.0,0.0,0.0,0.0,0.0,0.0,1.0,0.0,0.0,0.0
1393535343884,1,52fd3089498e77e0c317099a,45.782574,11.118444,45.7819371164161,11.117437971805796,0.0,0.0,0.0,0.0,0.0,1.0,0.0,0.0,0.0,0.0
1393535343884,1,52e12a62498ea4e97911a889,45.78261184692383,11.119242668151855,45.7819371164161,11.117437971805796,0.0,0.0,0.0,0.0,0.0,0.0,1.0,0.0,0.0,0.0
1393535343884,41,4db7cf004df0ded98baf8fac,45.78246553454402,11.119480631283254,45.7819371164161,11.117437971805796,0.0,0.0,0.0,0.0,0.0,0.0,1.0,0.0,0.0,0.0
1393535343884,25,4e8854897ee66a84ead7894c,45.78565702929935,11.112056649174638,45.7819371164161,11.117437971805796,0.0,0.0,1.0,0.0,0.0,0.0,0.0,0.0,0.0,0.0
1393535343884,4,4e8858ef02d5e4ce2c657b32,45.781148,11.124307,45.78169805371432,11.130293157391097,0.0,1.0,0.0,0.0,0.0,0.0,0.0,0.0,0.0,0.0
1393535343884,51,4e3d3d92fa76455375b4c8bc,45.7839004354851,11.186236870322377,45.78072734999745,11.181712264310171,0.0,0.0,1.0,0.0,0.0,0.0,0.0,0.0,0.0,0.0
1393535343884,5,505de018e4b0ad0a3e913368,45.801859,10.534644,45.800195706807656,10.539049947484934,0.0,0.0,1.0,0.0,0.0,0.0,0.0,0.0,0.0,0.0
1393535343884,24,4e4454c71495455b10cc604a,45.80250621873336,10.535054557436606,45.800195706807656,10.539049947484934,0.0,0.0,1.0,0.0,0.0,0.0,0.0,0.0,0.0,0.0
1393535343884,3,51333fcee4b0ef4e18457e72,45.800711,10.601874,45.799311071681984,10.603366535732404,0.0,0.0,1.0,0.0,0.0,0.0,0.0,0.0,0.0,0.0
1393535343884,11,4e52473a52b1fa492db405c1,45.796779953146874,10.925294047664568,45.79434517524848,10.924901086644908,0.0,1.0,0.0,0.0,0.0,0.0,0.0,0.0,0.0,0.0
1393535343884,1,51d011cc498ee2e5fdd74631,45.79331464298832,10.949602717141431,45.793908838984585,10.950620084377068,0.0,0.0,0.0,0.0,1.0,0.0,0.0,0.0,0.0,0.0
1393535343884,37,4d964c6ec19fb60c34c57a65,45.79588834581145,10.974429755035283,45.79346671699834,10.976338486261607,0.0,0.0,0.0,0.0,0.0,0.0,1.0,0.0,0.0,0.0
1393535343884,12,5015148be4b0c79e488e7ddd,45.796137213924865,10.97142705533482,45.79346671699834,10.976338486261607,0.0,0.0,0.0,0.0,0.0,0.0,0.0,1.0,0.0,0.0
1393535343884,2,51f3f79e498e402589a91b3d,45.796316,10.971252,45.79346671699834,10.976338486261607,0.0,0.0,0.0,0.0,0.0,0.0,0.0,1.0,0.0,0.0
1393535343884,5,4da6be5a6a230db30ec8d751,45.795675,10.975643,45.79346671699834,10.976338486261607,1.0,0.0,0.0,0.0,0.0,0.0,0.0,0.0,0.0,0.0
1393535343884,146,500c62b9e4b08ffd5a64074f,45.79702133591454,11.015692949295044,45.79279268656222,11.014914954743913,0.0,0.0,1.0,0.0,0.0,0.0,0.0,0.0,0.0,0.0
1393535343884,8,4debbd8e1f6e3ddebdedc589,45.79638787778597,11.018852831374032,45.79279268656222,11.014914954743913,0.0,1.0,0.0,0.0,0.0,0.0,0.0,0.0,0.0,0.0
1393535343884,2,5195f6c3498e8c66313649d1,45.790489196777344,11.020922660827637,45.79279268656222,11.014914954743913,0.0,0.0,0.0,0.0,0.0,0.0,1.0,0.0,0.0,0.0
1393535343884,19,50d4873ae4b07653d2b05053,45.79710631938241,11.020710068401232,45.79279268656222,11.014914954743913,0.0,0.0,0.0,0.0,0.0,0.0,1.0,0.0,0.0,0.0
1393535343884,1,51220351e4b0f2db74d2afff,45.7904878453457,11.020922938899327,45.79279268656222,11.014914954743913,0.0,0.0,0.0,0.0,0.0,0.0,1.0,0.0,0.0,0.0
1393535343884,8,4e77517ca809582dd6c0bb54,45.79298258132342,11.025247225327226,45.79256511727396,11.027773471164588,0.0,1.0,0.0,0.0,0.0,0.0,0.0,0.0,0.0,0.0
1393535343884,1,52fbd669498e7bbb9acb1aec,45.794399,11.096548,45.7914055793093,11.092063711183862,0.0,0.0,0.0,0.0,0.0,1.0,0.0,0.0,0.0,0.0
1393535343884,4,52052bc911d29a562fff81c6,45.79429321685587,11.107324713540931,45.79116933373534,11.104921283922572,0.0,0.0,1.0,0.0,0.0,0.0,0.0,0.0,0.0,0.0
1393535343884,5,506c792fe4b0b120303886e3,45.79037,11.104185,45.79116933373534,11.104921283922572,0.0,0.0,0.0,1.0,0.0,0.0,0.0,0.0,0.0,0.0
1393535343884,3,518b64be498e94d9aba5f75b,45.794572,11.107231,45.79116933373534,11.104921283922572,1.0,0.0,0.0,0.0,0.0,0.0,0.0,0.0,0.0,0.0
1393535343884,1,50fb319ae4b0a8cc9b17698a,45.7876866650701,11.10590141181262,45.79116933373534,11.104921283922572,0.0,0.0,0.0,0.0,1.0,0.0,0.0,0.0,0.0,0.0
1393535343884,1,4f82debbe4b0bf6ccbbab48a,45.7916213,11.107495,45.79116933373534,11.104921283922572,0.0,0.0,0.0,0.0,0.0,1.0,0.0,0.0,0.0,0.0
1393535343884,330,4c3c4459980320a1955f8ae4,45.81061488635734,10.523056983947754,45.8093657455865,10.526432041613123,0.0,0.0,1.0,0.0,0.0,0.0,0.0,0.0,0.0,0.0
1393535343884,9,4f74ac90e4b0ae979f44c8fa,45.812579,10.521559,45.8093657455865,10.526432041613123,0.0,1.0,0.0,0.0,0.0,0.0,0.0,0.0,0.0,0.0
1393535343884,13,4e5a13cc483b865169e785f5,45.81242294297059,10.521642999620514,45.8093657455865,10.526432041613123,0.0,1.0,0.0,0.0,0.0,0.0,0.0,0.0,0.0,0.0
1393535343884,20,4e352e2e1f6e9e21ad4b7dad,45.80984456752672,10.529691497409999,45.8093657455865,10.526432041613123,0.0,1.0,0.0,0.0,0.0,0.0,0.0,0.0,0.0,0.0
1393535343884,62,4e7db5b002d57c9c0e919674,45.8101322167169,10.524461724016192,45.8093657455865,10.526432041613123,0.0,0.0,1.0,0.0,0.0,0.0,0.0,0.0,0.0,0.0
1393535343884,1,521743f511d22d533194292c,45.810245513916016,10.524552345275879,45.8093657455865,10.526432041613123,0.0,0.0,0.0,0.0,0.0,0.0,0.0,1.0,0.0,0.0
1393535343884,4,4f97ca77e4b0974543880ee6,45.80559953554533,10.527821067059238,45.8093657455865,10.526432041613123,0.0,0.0,1.0,0.0,0.0,0.0,0.0,0.0,0.0,0.0
1393535343884,13,4c31b04916adc9286cf5c09c,45.81472859711027,10.5211460923601,45.8093657455865,10.526432041613123,0.0,0.0,0.0,0.0,1.0,0.0,0.0,0.0,0.0,0.0
1393535343884,12,4c346b61452620a15505250f,45.80646017469347,10.540049817046679,45.80919310760649,10.539297785496803,0.0,0.0,0.0,0.0,0.0,0.0,1.0,0.0,0.0,0.0
1393535343884,1,51fa304a498e49825b92ac51,45.81058,10.542384,45.80919310760649,10.539297785496803,0.0,1.0,0.0,0.0,0.0,0.0,0.0,0.0,0.0,0.0
1393535343884,1,518b5ca9498e99d61fd913e9,45.80657,10.53675,45.80919310760649,10.539297785496803,0.0,0.0,0.0,0.0,0.0,0.0,1.0,0.0,0.0,0.0
1393535343884,8,4c31d0f03896e21e1f81e790,45.81043540578859,10.53314208984375,45.80919310760649,10.539297785496803,0.0,1.0,0.0,0.0,0.0,0.0,0.0,0.0,0.0,0.0
1393535343884,1,4f782bcce4b0a35da4f2cee4,45.81038191436413,10.56786759192371,45.80884348727248,10.565028919272924,0.0,0.0,0.0,0.0,1.0,0.0,0.0,0.0,0.0,0.0
1393535343884,3,4c348828ed37a593acfd6e03,45.81157210628936,10.58309555053711,45.80866650498827,10.577894307202296,0.0,0.0,1.0,0.0,0.0,0.0,0.0,0.0,0.0,0.0
1393535343884,40,4e86f897e5fa86b7cb97f2fc,45.798981,10.919831,45.803340750098336,10.92521097526332,0.0,0.0,0.0,1.0,0.0,0.0,0.0,0.0,0.0,0.0
1393535343884,1,52acd6bc11d26ab22cc5c4b8,45.79941,10.919563,45.803340750098336,10.92521097526332,0.0,0.0,0.0,0.0,0.0,0.0,0.0,1.0,0.0,0.0
1393535343884,2,51d7ad16498ea9799f694ab6,45.806074,10.926616,45.803340750098336,10.92521097526332,0.0,0.0,1.0,0.0,0.0,0.0,0.0,0.0,0.0,0.0
1393535343884,3,51cd59ff5019db93cf4d8d8e,45.800615441661506,10.92090368270874,45.803340750098336,10.92521097526332,0.0,0.0,0.0,1.0,0.0,0.0,0.0,0.0,0.0,0.0
1393535343884,14,4e5a4858d22dfba6f47ed3c3,45.799064,10.919751,45.803340750098336,10.92521097526332,0.0,1.0,0.0,0.0,0.0,0.0,0.0,0.0,0.0,0.0
1393535343884,3,5203fa27498e82219f034de3,45.806345608781065,10.952052098840529,45.80290427766931,10.950934107118739,0.0,1.0,0.0,0.0,0.0,0.0,0.0,0.0,0.0,0.0
1393535343884,30,500be37be4b067574ee73312,45.80045849359823,10.955249824528723,45.80290427766931,10.950934107118739,0.0,0.0,1.0,0.0,0.0,0.0,0.0,0.0,0.0,0.0
1393535343884,2,5217052011d2210d4744051b,45.801677,10.958447,45.802683871110716,10.9637954499625,0.0,0.0,0.0,1.0,0.0,0.0,0.0,0.0,0.0,0.0
1393535343884,22,4f5c6b2ae4b0b28dd4ce6fd8,45.80377119482485,11.019163083957112,45.80178777694486,11.015239311257186,1.0,0.0,0.0,0.0,0.0,0.0,0.0,0.0,0.0,0.0
1393535343884,17,5057164fe4b055f81cf41a7e,45.797716374492055,11.019270360161833,45.80178777694486,11.015239311257186,0.0,0.0,1.0,0.0,0.0,0.0,0.0,0.0,0.0,0.0
1393535343884,7,50767bfbe4b0ce30441ee1a1,45.80083093786977,11.019565572422929,45.80178777694486,11.015239311257186,0.0,0.0,0.0,0.0,0.0,0.0,1.0,0.0,0.0,0.0
1393535343884,6,4f59c1f2e4b0357e5cf87cc5,45.805346453478236,11.014728414320018,45.80178777694486,11.015239311257186,0.0,0.0,0.0,0.0,0.0,0.0,1.0,0.0,0.0,0.0
1393535343884,1,4f0f3592e4b0b3060843ce4c,45.80579778595948,11.016832507217835,45.80178777694486,11.015239311257186,1.0,0.0,0.0,0.0,0.0,0.0,0.0,0.0,0.0,0.0
1393535343884,24,50d9fc94e4b0ca0ba6145121,45.79756195794325,11.025003716855466,45.80156013664394,11.0280998941642,0.0,0.0,1.0,0.0,0.0,0.0,0.0,0.0,0.0,0.0
1393535343884,0,4e6944b0b99303873571236c,45.795726828776374,11.023640307155294,45.80156013664394,11.0280998941642,0.0,0.0,0.0,0.0,1.0,0.0,0.0,0.0,0.0,0.0
1393535343884,1,504c527fe4b00e670cf87821,45.797119,11.174533,45.79896062704161,11.169555865734981,0.0,0.0,0.0,0.0,0.0,1.0,0.0,0.0,0.0,0.0
1393535343884,12,5013df38e4b0d8233e36fadb,45.81049906602349,10.890386356352714,45.81298036629207,10.886929007694953,0.0,0.0,1.0,0.0,0.0,0.0,0.0,0.0,0.0,0.0
1393535343884,49,4db418204b226b343d86383a,45.81193201611715,10.940301165938545,45.81211872845894,10.938384719018792,0.0,1.0,0.0,0.0,0.0,0.0,0.0,0.0,0.0,0.0
1393535343884,1,5177c7c0e4b0c121d1a963d6,45.8133430480957,10.938336372375488,45.81211872845894,10.938384719018792,0.0,0.0,1.0,0.0,0.0,0.0,0.0,0.0,0.0,0.0
1393535343884,4,4f82a7f6e4b01e69d8fb978d,45.80980312382662,10.934896810890192,45.81211872845894,10.938384719018792,0.0,0.0,0.0,1.0,0.0,0.0,0.0,0.0,0.0,0.0
1393535343884,5,4dbd3542a86e0e98a1f5d911,45.813307093246976,10.957704248314288,45.811899700452045,10.951248278909578,0.0,0.0,1.0,0.0,0.0,0.0,0.0,0.0,0.0,0.0
1393535343884,4,4e46426dd4c065cb6b9cc53b,45.81618750223865,10.955887151075677,45.811899700452045,10.951248278909578,0.0,0.0,0.0,0.0,0.0,0.0,1.0,0.0,0.0,0.0
1393535343884,0,50943fadf136ba4f17e0e6f5,45.8151166680908,10.946545600891113,45.811899700452045,10.951248278909578,0.0,1.0,0.0,0.0,0.0,0.0,0.0,0.0,0.0,0.0
1393535343884,3,4dc42626e4cd169dc62b7d07,45.815597,10.958589,45.81167922511266,10.964111689663902,0.0,0.0,0.0,0.0,0.0,1.0,0.0,0.0,0.0,0.0
1393535343884,5,4dbd3542a86e0e98a1f5d911,45.813307093246976,10.957704248314288,45.81167922511266,10.964111689663902,0.0,0.0,1.0,0.0,0.0,0.0,0.0,0.0,0.0,0.0
1393535343884,1,4fcb38f0e4b023688a0d6f0f,45.8131787,10.9650316,45.81167922511266,10.964111689663902,0.0,0.0,0.0,0.0,0.0,1.0,0.0,0.0,0.0,0.0
1393535343884,4,515da128e4b09b205e894091,45.80760497905593,10.972591749146662,45.81145730248478,10.976974950301706,0.0,0.0,1.0,0.0,0.0,0.0,0.0,0.0,0.0,0.0
1393535343884,25,529ca9aa498e6f36151e66ab,45.80726012016053,11.003746885468054,45.81100911554091,11.002701017307825,0.0,0.0,0.0,0.0,1.0,0.0,0.0,0.0,0.0,0.0
1393535343884,106,4db86d1b43a1e5b1e2b6336e,45.81015754434095,11.009178307824362,45.81100911554091,11.002701017307825,0.0,0.0,1.0,0.0,0.0,0.0,0.0,0.0,0.0,0.0
1393535343884,2,52dd00ca498e26d2003c056e,45.809434,11.008962,45.81100911554091,11.002701017307825,0.0,0.0,0.0,0.0,0.0,0.0,0.0,1.0,0.0,0.0
1393535343884,5,519f2048498ee0b942e6cd72,45.80858002501208,11.008901282588626,45.81100911554091,11.002701017307825,1.0,0.0,0.0,0.0,0.0,0.0,0.0,0.0,0.0,0.0
1393535343884,748,4f5e70f8e4b0037370ae86b9,45.81437435924209,11.012380829889674,45.81078285131434,11.015563821716375,0.0,0.0,1.0,0.0,0.0,0.0,0.0,0.0,0.0,0.0
1393535343884,106,4db86d1b43a1e5b1e2b6336e,45.81015754434095,11.009178307824362,45.81078285131434,11.015563821716375,0.0,0.0,1.0,0.0,0.0,0.0,0.0,0.0,0.0,0.0
1393535343884,170,50642f2de4b0a7239356caa6,45.814407197029205,11.012414334096036,45.81078285131434,11.015563821716375,0.0,0.0,0.0,0.0,0.0,0.0,1.0,0.0,0.0,0.0
1393535343884,129,4d41a53b915a37043800227f,45.80857394513058,11.015055640469356,45.81078285131434,11.015563821716375,0.0,0.0,0.0,1.0,0.0,0.0,0.0,0.0,0.0,0.0
1393535343884,20,50a0ada9e4b0388826427520,45.80736634817334,11.011182394444486,45.81078285131434,11.015563821716375,0.0,0.0,0.0,0.0,0.0,0.0,0.0,1.0,0.0,0.0
1393535343884,34,4f5c6830e4b0695cbb0ddaba,45.80873974968842,11.012365293652373,45.81078285131434,11.015563821716375,0.0,0.0,0.0,0.0,0.0,0.0,1.0,0.0,0.0,0.0
1393535343884,1,52ace7b8498ef5e76edc262f,45.80867343705375,11.011700346505544,45.81078285131434,11.015563821716375,0.0,0.0,0.0,0.0,0.0,0.0,0.0,1.0,0.0,0.0
1393535343884,6,4e4d353022717c65aca5dd19,45.815367184337546,11.019098402938827,45.81078285131434,11.015563821716375,0.0,0.0,0.0,0.0,1.0,0.0,0.0,0.0,0.0,0.0
1393535343884,19,4efafd6a61af4546016db08f,45.80707870585196,11.01522447619339,45.81078285131434,11.015563821716375,0.0,0.0,1.0,0.0,0.0,0.0,0.0,0.0,0.0,0.0
1393535343884,12,4efad96c0e61a0847075bc57,45.81279151216637,11.012976266745955,45.81078285131434,11.015563821716375,0.0,0.0,1.0,0.0,0.0,0.0,0.0,0.0,0.0,0.0
1393535343884,2,4fc4986de4b0b59cdf260831,45.808983366271875,11.012851124483475,45.81078285131434,11.015563821716375,0.0,0.0,0.0,0.0,0.0,0.0,1.0,0.0,0.0,0.0
1393535343884,1,519faafe498e1cfd4275dcf6,45.811425,11.013575,45.81078285131434,11.015563821716375,0.0,0.0,0.0,0.0,0.0,0.0,0.0,1.0,0.0,0.0
1393535343884,28,4d4fda349ffc236a80de12a7,45.80987035580199,11.01433385654702,45.81078285131434,11.015563821716375,0.0,0.0,0.0,1.0,0.0,0.0,0.0,0.0,0.0,0.0
1393535343884,26,50fd93e1e4b08ca14d1b8c97,45.80611771587465,11.015495335176247,45.81078285131434,11.015563821716375,0.0,0.0,0.0,0.0,1.0,0.0,0.0,0.0,0.0,0.0
1393535343884,4,4f1d23a4e4b0d790445d39ab,45.810135,11.015252,45.81078285131434,11.015563821716375,0.0,0.0,0.0,0.0,0.0,0.0,1.0,0.0,0.0,0.0
1393535343884,19,4fb53a1fe4b0292fd363855e,45.81094938649095,11.011904993311143,45.81078285131434,11.015563821716375,0.0,0.0,0.0,0.0,0.0,0.0,1.0,0.0,0.0,0.0
1393535343884,2,4f756ca1e4b07eec202b6cf3,45.808855177770035,11.018071144243155,45.81078285131434,11.015563821716375,0.0,0.0,0.0,0.0,0.0,0.0,1.0,0.0,0.0,0.0
1393535343884,1,4fcca685e4b0c18edeb8a10f,45.81146240234375,11.011895179748535,45.81078285131434,11.015563821716375,0.0,0.0,0.0,0.0,0.0,0.0,1.0,0.0,0.0,0.0
1393535343884,0,4e779fb82271ffa4e7e4f2ed,45.81127166748047,11.012024879455566,45.81078285131434,11.015563821716375,0.0,0.0,0.0,0.0,0.0,1.0,0.0,0.0,0.0,0.0
1393535343884,1,50090b08e4b0a27e00c0a709,45.81228,11.037531,45.81032598157758,11.041288967445574,0.0,0.0,1.0,0.0,0.0,0.0,0.0,0.0,0.0,0.0
1393535343884,9,500ac899e4b07041ced9f3f4,45.80803579842782,11.058005951766658,45.810095376158536,11.0541513068069,0.0,1.0,0.0,0.0,0.0,0.0,0.0,0.0,0.0,0.0
1393535343884,4,51438472e4b0bb739139182e,45.82508452912169,10.512911595662679,45.82753190584323,10.514053926086167,0.0,0.0,0.0,0.0,1.0,0.0,0.0,0.0,0.0,0.0
1393535343884,11,5012afb5e4b08516d18ff4ad,45.82624534540461,10.531313174751281,45.82736060914735,10.526923928755235,0.0,1.0,0.0,0.0,0.0,0.0,0.0,0.0,0.0,0.0
1393535343884,13,51eaaa24498ee1f3dd7bbc0c,45.82643154158097,10.532031631993844,45.82736060914735,10.526923928755235,0.0,0.0,0.0,1.0,0.0,0.0,0.0,0.0,0.0,0.0
1393535343884,10,50540617e4b03ac26264ed76,45.82470125497731,10.52989392651161,45.82736060914735,10.526923928755235,0.0,0.0,0.0,1.0,0.0,0.0,0.0,0.0,0.0,0.0
1393535343884,5,505483aee4b0feb299cf201a,45.82291525935086,10.536273978681335,45.82736060914735,10.526923928755235,0.0,0.0,0.0,0.0,1.0,0.0,0.0,0.0,0.0,0.0
1393535343884,2,4e3196002271cfd3d04cc60d,45.824036,10.529519,45.82736060914735,10.526923928755235,0.0,0.0,0.0,1.0,0.0,0.0,0.0,0.0,0.0,0.0
1393535343884,4,4c35a52c3896e21ed777ed90,45.824122,10.529275,45.82736060914735,10.526923928755235,1.0,0.0,0.0,0.0,0.0,0.0,0.0,0.0,0.0,0.0
1393535343884,13,503f9ba8e4b05737f4a22b35,45.829609003140654,10.536147237135804,45.82718786337725,10.539793814599204,0.0,0.0,1.0,0.0,0.0,0.0,0.0,0.0,0.0,0.0
1393535343884,3,4f3f553be4b0b019c5bb2c55,45.82876029925633,10.542909294173835,45.82718786337725,10.539793814599204,1.0,0.0,0.0,0.0,0.0,0.0,0.0,0.0,0.0,0.0
1393535343884,0,504e2a87e4b06b3022830b97,45.82291525935086,10.536273978681335,45.82718786337725,10.539793814599204,0.0,0.0,0.0,0.0,1.0,0.0,0.0,0.0,0.0,0.0
1393535343884,0,4e36caba922e1153a52e1239,45.82920294922059,10.535470247268677,45.82718786337725,10.539793814599204,1.0,0.0,0.0,0.0,0.0,0.0,0.0,0.0,0.0,0.0
1393535343884,18,4e42fd3ad164e180fb83b799,45.81906032740487,10.957397300661695,45.82089510733186,10.951562599836883,0.0,0.0,0.0,0.0,0.0,0.0,0.0,1.0,0.0,0.0
1393535343884,6,51603f20e4b0b81ab8005332,45.817676,10.956156,45.82089510733186,10.951562599836883,0.0,1.0,0.0,0.0,0.0,0.0,0.0,0.0,0.0,0.0
1393535343884,4,51c00a5b498e83be1b06cf39,45.817436968090526,10.955133654249611,45.82089510733186,10.951562599836883,0.0,0.0,0.0,1.0,0.0,0.0,0.0,0.0,0.0,0.0
1393535343884,17,4e6a6d8118381ea1bde65c7d,45.817583153430476,10.956891027349888,45.82089510733186,10.951562599836883,0.0,1.0,0.0,0.0,0.0,0.0,0.0,0.0,0.0,0.0
1393535343884,111,4c6e9002a437224b692630b1,45.817226,10.954813,45.82089510733186,10.951562599836883,0.0,1.0,0.0,0.0,0.0,0.0,0.0,0.0,0.0,0.0
1393535343884,16,4dfa498752b1a82364e61b07,45.81798185849085,10.955032966274572,45.82089510733186,10.951562599836883,0.0,1.0,0.0,0.0,0.0,0.0,0.0,0.0,0.0,0.0
1393535343884,14,4e46ccdb52b1bac0d97bacba,45.81730341594747,10.954324189754796,45.82089510733186,10.951562599836883,0.0,0.0,0.0,0.0,0.0,1.0,0.0,0.0,0.0,0.0
1393535343884,71,4bdc65692a3a0f4781a2b2b6,45.81812486888231,10.955157076321951,45.82089510733186,10.951562599836883,0.0,0.0,1.0,0.0,0.0,0.0,0.0,0.0,0.0,0.0
1393535343884,2,5035e762e4b025c29f52eaec,45.818799677618856,10.955244971993324,45.82089510733186,10.951562599836883,0.0,0.0,0.0,0.0,0.0,0.0,1.0,0.0,0.0,0.0
1393535343884,1,5016be8ee4b064ddc921aafd,45.81807327270508,10.956332206726074,45.82089510733186,10.951562599836883,0.0,0.0,1.0,0.0,0.0,0.0,0.0,0.0,0.0,0.0
1393535343884,1,50264657e4b042eaf7af04aa,45.817649,10.955019,45.82089510733186,10.951562599836883,1.0,0.0,0.0,0.0,0.0,0.0,0.0,0.0,0.0,0.0
1393535343884,3,4e57f21745dd1de4d98e76bc,45.817184,10.954205,45.82089510733186,10.951562599836883,0.0,1.0,0.0,0.0,0.0,0.0,0.0,0.0,0.0,0.0
1393535343884,0,52b70ec611d29bc251306b8c,45.818689,10.954317,45.82089510733186,10.951562599836883,0.0,0.0,0.0,0.0,0.0,0.0,1.0,0.0,0.0,0.0
1393535343884,0,52b70e50498e94c7f9558acd,45.818682,10.954245,45.82089510733186,10.951562599836883,0.0,0.0,0.0,0.0,0.0,0.0,1.0,0.0,0.0,0.0
1393535343884,0,4e5d1d2b18a8463c4d92ce40,45.82106900981175,10.960351528187513,45.82089510733186,10.951562599836883,0.0,0.0,0.0,0.0,1.0,0.0,0.0,0.0,0.0,0.0
1393535343884,4,4e57cb85aeb7eff130d0aba5,45.82106900981175,10.960351528187513,45.82089510733186,10.951562599836883,0.0,0.0,0.0,0.0,1.0,0.0,0.0,0.0,0.0,0.0
1393535343884,172,4e7e24639adffa2ada11445b,45.81831729214163,10.958282464931889,45.820674563189726,10.964428079481841,0.0,0.0,1.0,0.0,0.0,0.0,0.0,0.0,0.0,0.0
1393535343884,91,4c79665f3badb1f719f54e54,45.82373257429633,10.960755839217498,45.820674563189726,10.964428079481841,0.0,1.0,0.0,0.0,0.0,0.0,0.0,0.0,0.0,0.0
1393535343884,2,52b6cf13498e570502f56887,45.819069124470055,10.960841025960542,45.820674563189726,10.964428079481841,0.0,0.0,0.0,0.0,0.0,0.0,1.0,0.0,0.0,0.0
1393535343884,5,5196627e498e054cca839a29,45.8178689019493,10.963844854358602,45.820674563189726,10.964428079481841,0.0,0.0,0.0,0.0,0.0,1.0,0.0,0.0,0.0,0.0
1393535343884,14,4e5808a662e126c911a80571,45.821948,10.961044,45.820674563189726,10.964428079481841,0.0,0.0,1.0,0.0,0.0,0.0,0.0,0.0,0.0,0.0
1393535343884,3,506fed75e4b0f504a07293a1,45.821256,10.970762,45.820674563189726,10.964428079481841,0.0,0.0,1.0,0.0,0.0,0.0,0.0,0.0,0.0,0.0
1393535343884,8,4de7cf7bae60b9d73536fd8e,45.823607,10.960486,45.820674563189726,10.964428079481841,0.0,1.0,0.0,0.0,0.0,0.0,0.0,0.0,0.0,0.0
1393535343884,3,4e6cfffe62e15039f83bd80d,45.81716,10.969595,45.820674563189726,10.964428079481841,0.0,0.0,1.0,0.0,0.0,0.0,0.0,0.0,0.0,0.0
1393535343884,1,5056f6a2e4b0ff6b630afea1,45.817072,10.959568,45.820674563189726,10.964428079481841,1.0,0.0,0.0,0.0,0.0,0.0,0.0,0.0,0.0,0.0
1393535343884,3,506fed75e4b0f504a07293a1,45.821256,10.970762,45.82045257130801,10.977293408922328,0.0,0.0,1.0,0.0,0.0,0.0,0.0,0.0,0.0,0.0
1393535343884,10,4c9ca3089975a1433bbf33cf,45.821857,11.004288,45.82000424450324,11.003023613267686,0.0,0.0,0.0,1.0,0.0,0.0,0.0,0.0,0.0,0.0
1393535343884,14,4e05b78d7d8b2a01804f6247,45.81848681797826,11.010867884681062,45.819777909669654,11.01588848621164,1.0,0.0,0.0,0.0,0.0,0.0,0.0,0.0,0.0,0.0
1393535343884,9,4f5c69fbe4b01219ac0bab13,45.823106741071335,11.011256091057088,45.819777909669654,11.01588848621164,1.0,0.0,0.0,0.0,0.0,0.0,0.0,0.0,0.0,0.0
1393535343884,15,4ef8a09f9911b01ddc7be49b,45.81773482073732,11.093518985746156,45.81838950349471,11.093074452916092,0.0,0.0,1.0,0.0,0.0,0.0,0.0,0.0,0.0,0.0
1393535343884,2,51cd62145019db93cf52af1c,45.817823544365694,11.127219200134277,45.817675761451255,11.131665289406705,0.0,0.0,0.0,1.0,0.0,0.0,0.0,0.0,0.0,0.0
1393535343884,2,50d9a892e4b059090ffa9cdc,45.83593275634104,10.541854617281842,45.83618521834816,10.540042005827708,0.0,1.0,0.0,0.0,0.0,0.0,0.0,0.0,0.0,0.0
1393535343884,23,4c8892c90f3c236a9cf0f35c,45.83434153045876,10.541645008448974,45.83618521834816,10.540042005827708,0.0,0.0,0.0,0.0,0.0,0.0,1.0,0.0,0.0,0.0
1393535343884,4,50788024e4b0ef94abdcddac,45.83934964491613,10.549144851046037,45.83601096916546,10.552913846248753,0.0,0.0,0.0,0.0,0.0,0.0,0.0,1.0,0.0,0.0
1393535343884,10,4ef88f4d8b81ef98d1954c7f,45.84037474514251,10.554869296571049,45.83601096916546,10.552913846248753,0.0,0.0,0.0,0.0,1.0,0.0,0.0,0.0,0.0,0.0
1393535343884,6,51a1c634498ea8971e14a069,45.83607553542502,10.551501088749136,45.83601096916546,10.552913846248753,0.0,0.0,1.0,0.0,0.0,0.0,0.0,0.0,0.0,0.0
1393535343884,7,4f06fcefe4b06fab17efcda9,45.838921918015174,10.548353545256068,45.83601096916546,10.552913846248753,0.0,1.0,0.0,0.0,0.0,0.0,0.0,0.0,0.0,0.0
1393535343884,21,4dbd3b336e810768bf71a3ec,45.83666239347465,10.690041339409031,45.833998571862686,10.694496029823878,0.0,0.0,1.0,0.0,0.0,0.0,0.0,0.0,0.0,0.0
1393535343884,4,5211f59f11d226cf83104a2a,45.82981607208186,10.789909966366608,45.83262666186773,10.784585696209362,0.0,0.0,1.0,0.0,0.0,0.0,0.0,0.0,0.0,0.0
1393535343884,2,5225be0e11d25102ecd1b154,45.83471337556504,10.8050263959709,45.83222164795965,10.810324386682993,0.0,0.0,1.0,0.0,0.0,0.0,0.0,0.0,0.0,0.0
1393535343884,3,514d9749e4b01417e0a9a050,45.83530904415795,10.81640223539808,45.83222164795965,10.810324386682993,0.0,0.0,1.0,0.0,0.0,0.0,0.0,0.0,0.0,0.0
1393535343884,2,504c7150e4b0369116d45b00,45.834301181955894,10.916433443055446,45.830543647624445,10.913273529496882,0.0,1.0,0.0,0.0,0.0,0.0,0.0,0.0,0.0,0.0
1393535343884,1,4fc2072de4b021b6e00b07a8,45.82681,10.92695,45.830327379493184,10.926141524003022,0.0,1.0,0.0,0.0,0.0,0.0,0.0,0.0,0.0,0.0
1393535343884,10,4f77388de4b03b459d31f6f0,45.83215021851556,10.96631004345153,45.82966988534102,10.964744619504266,0.0,0.0,0.0,0.0,1.0,0.0,0.0,0.0,0.0,0.0
1393535343884,1,4eb670af93ad23657096948b,45.826016981786026,10.978795969267072,45.82944782418332,10.977612018728003,0.0,0.0,1.0,0.0,0.0,0.0,0.0,0.0,0.0,0.0
1393535343884,20,4e908101dab46521c119cc3c,45.825729570719645,11.00390484468899,45.82899935747298,11.003346362373515,0.0,0.0,0.0,0.0,0.0,0.0,1.0,0.0,0.0,0.0
1393535343884,1,5248411b498e729b2f5c30d2,45.833302,11.002848,45.82899935747298,11.003346362373515,0.0,0.0,0.0,1.0,0.0,0.0,0.0,0.0,0.0,0.0
1393535343884,3,500137a0e4b0d5040e476173,45.82886642033246,11.003253105674258,45.82899935747298,11.003346362373515,0.0,0.0,0.0,1.0,0.0,0.0,0.0,0.0,0.0,0.0
1393535343884,9,4da8746b4df0af29b70dfaed,45.82731421921706,11.144267245254655,45.82642926432645,11.144874085701938,0.0,0.0,1.0,0.0,0.0,0.0,0.0,0.0,0.0,0.0
1393535343884,3,51fa77c9498ec59c452dcfba,45.84313746787379,10.550940286656054,45.84500825446917,10.553164228722434,0.0,0.0,0.0,1.0,0.0,0.0,0.0,0.0,0.0,0.0
1393535343884,3,51b363ac498e2b4f93ca7ff9,45.84146281495077,10.543178671057342,45.84500825446917,10.553164228722434,0.0,0.0,0.0,0.0,1.0,0.0,0.0,0.0,0.0,0.0
1393535343884,1,52b3020911d20af7d3dc3df8,45.848724,10.556868,45.84500825446917,10.553164228722434,0.0,1.0,0.0,0.0,0.0,0.0,0.0,0.0,0.0,0.0
1393535343884,28,4e9ef05330f8fb6776224759,45.84069177710732,10.549678016196106,45.84500825446917,10.553164228722434,0.0,0.0,1.0,0.0,0.0,0.0,0.0,0.0,0.0,0.0
1393535343884,1,5120cd6ae4b0e893fe7b9e54,45.84146281495077,10.543178671057342,45.84500825446917,10.553164228722434,0.0,0.0,0.0,0.0,1.0,0.0,0.0,0.0,0.0,0.0
1393535343884,1,4f8044a2e4b06fa516145196,45.84146281495077,10.543178671057342,45.84500825446917,10.553164228722434,0.0,0.0,0.0,0.0,1.0,0.0,0.0,0.0,0.0,0.0
1393535343884,1,4f795554e4b0d6936adde86e,45.84141,10.55019,45.84500825446917,10.553164228722434,1.0,0.0,0.0,0.0,0.0,0.0,0.0,0.0,0.0,0.0
1393535343884,4,4c88915710523704449ac1f1,45.849216391720084,10.559740884805018,45.84483250098722,10.566038023581777,0.0,0.0,0.0,0.0,0.0,0.0,1.0,0.0,0.0,0.0
1393535343884,0,505ebbe9e4b0d9a2f15d0e4e,45.849124908447266,10.568800926208496,45.84483250098722,10.566038023581777,0.0,0.0,1.0,0.0,0.0,0.0,0.0,0.0,0.0,0.0
1393535343884,118,4cfac448d7206ea8dafc3a69,45.84885842192357,10.576082253269234,45.84465529763139,10.578911698527387,0.0,0.0,1.0,0.0,0.0,0.0,0.0,0.0,0.0,0.0
1393535343884,1,52b238ae11d28fa396c369a6,45.84829299229979,10.573053359985352,45.84465529763139,10.578911698527387,0.0,0.0,0.0,0.0,0.0,0.0,1.0,0.0,0.0,0.0
1393535343884,7,5093d929e4b0e52fa2c68f41,45.84794786891861,10.581181722874986,45.84465529763139,10.578911698527387,0.0,1.0,0.0,0.0,0.0,0.0,0.0,0.0,0.0,0.0
1393535343884,6,4faeaa00e4b01d7a9021a24a,45.848475211845724,10.579599561755389,45.84465529763139,10.578911698527387,0.0,0.0,0.0,0.0,0.0,0.0,0.0,1.0,0.0,0.0
1393535343884,4,5153e514e4b00a630eb719e4,45.848380819695805,10.573228007896601,45.84465529763139,10.578911698527387,0.0,0.0,0.0,0.0,0.0,0.0,1.0,0.0,0.0,0.0
1393535343884,18,4da18fbe63b5a35d91c1ea19,45.8442852,10.58339465,45.84465529763139,10.578911698527387,0.0,0.0,0.0,1.0,0.0,0.0,0.0,0.0,0.0,0.0
1393535343884,8,505f3898d86ccd770d278984,45.849040315718746,10.577934980392456,45.84465529763139,10.578911698527387,0.0,0.0,0.0,0.0,0.0,0.0,1.0,0.0,0.0,0.0
1393535343884,14,4ef836230e013b2126b0f14f,45.84832709867686,10.579530167766467,45.84465529763139,10.578911698527387,0.0,0.0,0.0,0.0,0.0,0.0,0.0,1.0,0.0,0.0
1393535343884,1,519fab69498ec4324b2a089d,45.847858,10.581191,45.84465529763139,10.578911698527387,0.0,1.0,0.0,0.0,0.0,0.0,0.0,0.0,0.0,0.0
1393535343884,5,4f46514ce4b0cc9b80d49fa8,45.84906298825864,10.578961751598259,45.84465529763139,10.578911698527387,1.0,0.0,0.0,0.0,0.0,0.0,0.0,0.0,0.0,0.0
1393535343884,0,501848b0e4b0bf909afb26b2,45.8487452,10.578348900000037,45.84465529763139,10.578911698527387,1.0,0.0,0.0,0.0,0.0,0.0,0.0,0.0,0.0,0.0
1393535343884,4,4ead14b5dab4a75e09f2f474,45.84179263834141,10.686201452481429,45.843185479633306,10.681896663160487,0.0,0.0,1.0,0.0,0.0,0.0,0.0,0.0,0.0,0.0
1393535343884,6,4ead2102f5b936710b5b7541,45.83880743163607,10.699478965722204,45.842995229040106,10.694769214620955,0.0,0.0,1.0,0.0,0.0,0.0,0.0,0.0,0.0,0.0
1393535343884,2,506d8464e4b01cb55c29e013,45.838674,10.807814,45.84121775054624,10.810616221118064,0.0,0.0,1.0,0.0,0.0,0.0,0.0,0.0,0.0,0.0
1393535343884,17,4db180a6a86e63d2116c2aad,45.84497373475426,10.828550678093375,45.8410130066417,10.823487430859625,0.0,0.0,0.0,1.0,0.0,0.0,0.0,0.0,0.0,0.0
1393535343884,1,4fa1098be4b0ae7d34f6e978,45.8444496,10.827483,45.8410130066417,10.823487430859625,0.0,0.0,1.0,0.0,0.0,0.0,0.0,0.0,0.0,0.0
1393535343884,0,4f7016aee4b05c9c2d3731fa,45.841297,10.826732,45.8410130066417,10.823487430859625,0.0,0.0,1.0,0.0,0.0,0.0,0.0,0.0,0.0,0.0
1393535343884,38,4e902210775bfdaabc336fb7,45.83661849719126,10.859599113464355,45.84039008042695,10.86210021869222,0.0,0.0,1.0,0.0,0.0,0.0,0.0,0.0,0.0,0.0
1393535343884,7,4db182675da32cf2df5d23e1,45.83956305881101,10.860150305880742,45.84039008042695,10.86210021869222,0.0,1.0,0.0,0.0,0.0,0.0,0.0,0.0,0.0,0.0
1393535343884,21,4ea4096293ad755e379ec63e,45.836731066660306,10.952626231334884,45.83888587337917,10.952191689450476,0.0,0.0,1.0,0.0,0.0,0.0,0.0,0.0,0.0,0.0
1393535343884,1,5239c0e811d2a0dd93e8a105,45.835962,10.958412,45.83888587337917,10.952191689450476,1.0,0.0,0.0,0.0,0.0,0.0,0.0,0.0,0.0,0.0
1393535343884,3,50d883b9e4b0421e693aa98a,45.83811950683594,10.95540237426758,45.83888587337917,10.952191689450476,1.0,0.0,0.0,0.0,0.0,0.0,0.0,0.0,0.0,0.0
1393535343884,343,4da1ef677aee5481b696cbfe,45.83953361340492,10.970792770385742,45.8386651915656,10.965061309819193,0.0,0.0,1.0,0.0,0.0,0.0,0.0,0.0,0.0,0.0
1393535343884,110,511af16fe4b0924ac52160b8,45.839580136513966,10.967526760181016,45.8386651915656,10.965061309819193,0.0,0.0,0.0,0.0,1.0,0.0,0.0,0.0,0.0,0.0
1393535343884,24,511e3b3fe4b0a28dc624d94c,45.83794429541958,10.969385973265661,45.8386651915656,10.965061309819193,0.0,1.0,0.0,0.0,0.0,0.0,0.0,0.0,0.0,0.0
1393535343884,7,4e2af222a809f1b1640a18e1,45.84279,10.971179,45.8386651915656,10.965061309819193,0.0,0.0,0.0,1.0,0.0,0.0,0.0,0.0,0.0,0.0
1393535343884,8,4f493710e4b03377e7f47519,45.8374108259422,10.970706939697266,45.8386651915656,10.965061309819193,0.0,0.0,1.0,0.0,0.0,0.0,0.0,0.0,0.0,0.0
1393535343884,5,4f80a83de4b01e69d72f6b33,45.837391,10.970716,45.8386651915656,10.965061309819193,0.0,1.0,0.0,0.0,0.0,0.0,0.0,0.0,0.0,0.0
1393535343884,51,4c711b99d274b60c9e7ddb0d,45.84101,10.970287,45.8386651915656,10.965061309819193,0.0,1.0,0.0,0.0,0.0,0.0,0.0,0.0,0.0,0.0
1393535343884,0,511af123e4b0858217f5f36c,45.839580136513966,10.967526760181016,45.8386651915656,10.965061309819193,0.0,0.0,0.0,0.0,1.0,0.0,0.0,0.0,0.0,0.0
1393535343884,0,518535ab498e285dce3fe678,45.837947845458984,10.970491409301758,45.8386651915656,10.965061309819193,0.0,1.0,0.0,0.0,0.0,0.0,0.0,0.0,0.0,0.0
1393535343884,21,512e36eee4b01d3966b9c6cd,45.84222387634975,10.993273448128932,45.838219482056125,10.990800098433157,0.0,1.0,0.0,0.0,0.0,0.0,0.0,0.0,0.0,0.0
1393535343884,48,4fe174dde4b039b195e7e7e2,45.84196881980715,11.007596631128807,45.83799445444919,11.003669264715048,0.0,0.0,0.0,0.0,0.0,0.0,1.0,0.0,0.0,0.0
1393535343884,2,52b8a3da498e1c418b8a8275,45.842506408691406,11.007852554321289,45.83799445444919,11.003669264715048,0.0,1.0,0.0,0.0,0.0,0.0,0.0,0.0,0.0,0.0
1393535343884,7,5129fda7e4b02612a4e6a061,45.839203512956445,11.002663402317937,45.83799445444919,11.003669264715048,0.0,0.0,0.0,1.0,0.0,0.0,0.0,0.0,0.0,0.0
1393535343884,1,52b46ffc498e19e4db70a8c7,45.84541468201387,11.006394122866048,45.83799445444919,11.003669264715048,0.0,0.0,0.0,0.0,1.0,0.0,0.0,0.0,0.0,0.0
1393535343884,13,511600d2e4b02ebaec9cb929,45.841134213804516,11.008429533798882,45.83799445444919,11.003669264715048,1.0,0.0,0.0,0.0,0.0,0.0,0.0,0.0,0.0,0.0
1393535343884,28,4f64d430e4b065612525876e,45.84167925019821,11.008103159984563,45.83799445444919,11.003669264715048,0.0,0.0,0.0,0.0,0.0,0.0,0.0,0.0,1.0,0.0
1393535343884,118,4ec8fa5449010f98ce49574f,45.83799652937192,10.99938448303058,45.83799445444919,11.003669264715048,0.0,0.0,1.0,0.0,0.0,0.0,0.0,0.0,0.0,0.0
1393535343884,13,5115fe59e4b0666806fdfac0,45.84236002216564,11.007745743054523,45.83799445444919,11.003669264715048,1.0,0.0,0.0,0.0,0.0,0.0,0.0,0.0,0.0,0.0
1393535343884,227,511543aee4b08d16e6417ab8,45.83615883529501,11.002792723056592,45.83799445444919,11.003669264715048,0.0,0.0,0.0,0.0,1.0,0.0,0.0,0.0,0.0,0.0
1393535343884,29,500e577be4b060e7f278424d,45.84184963811633,11.007625952407631,45.83799445444919,11.003669264715048,0.0,0.0,0.0,0.0,0.0,0.0,1.0,0.0,0.0,0.0
1393535343884,14,4ef78c9cf79073125211f0fc,45.841185444802,11.009920835494995,45.83799445444919,11.003669264715048,0.0,1.0,0.0,0.0,0.0,0.0,0.0,0.0,0.0,0.0
1393535343884,0,5002a77be4b023056de897da,45.84541468201387,11.006394122866048,45.83799445444919,11.003669264715048,0.0,0.0,0.0,0.0,1.0,0.0,0.0,0.0,0.0,0.0
1393535343884,2,5058c974e4b0e26b44ff0d70,45.83615883529501,11.002792723056592,45.83799445444919,11.003669264715048,0.0,0.0,0.0,0.0,1.0,0.0,0.0,0.0,0.0,0.0
1393535343884,15,4f4a7746e4b07165fb4a1d2e,45.84541468201387,11.006394122866048,45.83799445444919,11.003669264715048,0.0,0.0,0.0,0.0,1.0,0.0,0.0,0.0,0.0,0.0
1393535343884,1,4c343b333896e21e903eeb90,45.836362,11.002652,45.83799445444919,11.003669264715048,0.0,0.0,0.0,1.0,0.0,0.0,0.0,0.0,0.0,0.0
1393535343884,77,4ff08f44e4b0dccbdd73630e,45.83477045430228,11.010742631737816,45.83776797833393,11.016538277671433,0.0,0.0,0.0,0.0,0.0,1.0,0.0,0.0,0.0,0.0
1393535343884,43,4ef4fc43b6342877b8d15bc2,45.83694395833192,11.010533840853508,45.83776797833393,11.016538277671433,0.0,1.0,0.0,0.0,0.0,0.0,0.0,0.0,0.0,0.0
1393535343884,11,4fb7d230e4b0dead6c32e753,45.837424271216825,11.010932342638029,45.83776797833393,11.016538277671433,0.0,0.0,1.0,0.0,0.0,0.0,0.0,0.0,0.0,0.0
1393535343884,4,511d33f6e4b09918d6e102ef,45.835847135689974,11.010461955956941,45.83776797833393,11.016538277671433,1.0,0.0,0.0,0.0,0.0,0.0,0.0,0.0,0.0,0.0
1393535343884,2,500a99cde4b02b2a7ef7d2a4,45.84427075006342,11.018155828587897,45.83776797833393,11.016538277671433,0.0,0.0,0.0,0.0,1.0,0.0,0.0,0.0,0.0,0.0
1393535343884,7,500bbd4ee4b043efbeadbe6c,45.83711025071922,11.053912432302095,45.83707985939175,11.055144386772977,0.0,0.0,1.0,0.0,0.0,0.0,0.0,0.0,0.0,0.0
1393535343884,27,4f75ec5fe4b02125ab8c97d3,45.839848974237704,11.063859094239584,45.83684758969818,11.068012776613145,0.0,0.0,0.0,0.0,1.0,0.0,0.0,0.0,0.0,0.0
1393535343884,1,4f8878fde4b04a075dbf1732,45.85023,10.552984,45.854005524478026,10.55341473012605,0.0,0.0,0.0,0.0,0.0,0.0,1.0,0.0,0.0,0.0
1393535343884,5,50bf3d52e4b0097253b4e8a6,45.854751,10.567368,45.853829716136204,10.566290599267724,0.0,1.0,0.0,0.0,0.0,0.0,0.0,0.0,0.0,0.0
1393535343884,11,4dfa660f1fc70cefb996e6ef,45.85222380099019,10.570907592773438,45.853829716136204,10.566290599267724,0.0,0.0,0.0,0.0,0.0,0.0,1.0,0.0,0.0,0.0
1393535343884,2,503901c3e4b06e2fb26fc4d6,45.85462012872935,10.56281459295391,45.853829716136204,10.566290599267724,1.0,0.0,0.0,0.0,0.0,0.0,0.0,0.0,0.0,0.0
1393535343884,13,50360d3ee4b053240ce2795c,45.84856018640785,10.570023708652869,45.853829716136204,10.566290599267724,0.0,0.0,0.0,0.0,1.0,0.0,0.0,0.0,0.0,0.0
1393535343884,2,503901f1e4b03267a8b9d132,45.854157,10.567289,45.853829716136204,10.566290599267724,1.0,0.0,0.0,0.0,0.0,0.0,0.0,0.0,0.0,0.0
1393535343884,0,5035dbb1e4b02de936ac8195,45.84856018640785,10.570023708652869,45.853829716136204,10.566290599267724,0.0,0.0,0.0,0.0,1.0,0.0,0.0,0.0,0.0,0.0
1393535343884,4,5078649de4b0ce42c5b50ca7,45.84927749633789,10.5787992477417,45.853652457468286,10.579166348425323,0.0,0.0,0.0,0.0,0.0,0.0,1.0,0.0,0.0,0.0
1393535343884,2,50f2a47ce4b0d3754d7d7dd2,45.84746868624676,10.58172082029048,45.853652457468286,10.579166348425323,0.0,0.0,0.0,0.0,1.0,0.0,0.0,0.0,0.0,0.0
1393535343884,1,51767b89e4b01d16b4e3fa7b,45.856815338134766,10.582366943359375,45.853652457468286,10.579166348425323,0.0,0.0,0.0,0.0,0.0,0.0,1.0,0.0,0.0,0.0
1393535343884,1,503735b0e4b0c1735574d70a,45.851711,10.574766,45.853652457468286,10.579166348425323,0.0,0.0,1.0,0.0,0.0,0.0,0.0,0.0,0.0,0.0
1393535343884,9,4f627853e4b086a3355cf4b6,45.84746868624676,10.58172082029048,45.853652457468286,10.579166348425323,0.0,0.0,0.0,0.0,1.0,0.0,0.0,0.0,0.0,0.0
1393535343884,21,51b08687498ec58d94499165,45.85156994111784,10.826212399650345,45.85000902965497,10.823781476655377,0.0,0.0,0.0,0.0,0.0,1.0,0.0,0.0,0.0,0.0
1393535343884,45,4ca85ef0b0b8236a58c7b2e6,45.85126,10.824569,45.85000902965497,10.823781476655377,0.0,1.0,0.0,0.0,0.0,0.0,0.0,0.0,0.0,0.0
1393535343884,7,4dbbecea4df044e524d610a0,45.85079639427865,10.826410957673353,45.85000902965497,10.823781476655377,0.0,1.0,0.0,0.0,0.0,0.0,0.0,0.0,0.0,0.0
1393535343884,16,4fc4978fe4b0d9d21ec09a22,45.851226090317724,10.824662700568826,45.85000902965497,10.823781476655377,0.0,0.0,0.0,0.0,0.0,0.0,1.0,0.0,0.0,0.0
1393535343884,0,51dc62565019266173cdd0cd,45.85428624347398,10.833721160888672,45.84980277228733,10.836654619504246,0.0,0.0,0.0,1.0,0.0,0.0,0.0,0.0,0.0,0.0
1393535343884,6,516137fde4b0d19a94cd592b,45.845,10.8636,45.84938590902871,10.862400482293157,0.0,0.0,1.0,0.0,0.0,0.0,0.0,0.0,0.0,0.0
1393535343884,3,51b1c0d5498ef77b74b90c43,45.845115,10.895237,45.848749743458974,10.901018204460565,0.0,0.0,0.0,0.0,0.0,0.0,1.0,0.0,0.0,0.0
1393535343884,63,4d571b87b00160fc943bdf85,45.85176048817253,10.971651077270508,45.847660481862576,10.965378150514717,0.0,1.0,0.0,0.0,0.0,0.0,0.0,0.0,0.0,0.0
1393535343884,3,51825f76498e180efd16aafe,45.851498492301246,10.971377713736691,45.847660481862576,10.965378150514717,1.0,0.0,0.0,0.0,0.0,0.0,0.0,0.0,0.0,0.0
1393535343884,9,4dc42f9f887717c8800314d3,45.85198,10.971825,45.847660481862576,10.965378150514717,0.0,1.0,0.0,0.0,0.0,0.0,0.0,0.0,0.0,0.0
1393535343884,10,4e49634b18387418d6e15adb,45.85108100665993,10.963456811744358,45.847660481862576,10.965378150514717,0.0,1.0,0.0,0.0,0.0,0.0,0.0,0.0,0.0,0.0
1393535343884,880,4dc69f93e4cd169dc66998a8,45.845542755655856,10.980706214904785,45.84743828208653,10.978249692248957,0.0,0.0,1.0,0.0,0.0,0.0,0.0,0.0,0.0,0.0
1393535343884,187,4e3bdffb1fc7f3d8d474d8dc,45.851887525942075,10.978842079639435,45.84743828208653,10.978249692248957,0.0,0.0,0.0,0.0,0.0,0.0,0.0,1.0,0.0,0.0
1393535343884,112,50b66fa7e4b07378c36107eb,45.847698388281984,10.982874800959411,45.84743828208653,10.978249692248957,0.0,0.0,0.0,0.0,1.0,0.0,0.0,0.0,0.0,0.0
1393535343884,660,4daeaa6c43a1f97d918f8e40,45.844917,10.979324,45.84743828208653,10.978249692248957,0.0,0.0,1.0,0.0,0.0,0.0,0.0,0.0,0.0,0.0
1393535343884,7,50ffb15ae4b02a9419614270,45.84865235484078,10.982849633218033,45.84743828208653,10.978249692248957,1.0,0.0,0.0,0.0,0.0,0.0,0.0,0.0,0.0,0.0
1393535343884,34,50b72bb8e4b0748ab3855434,45.84998862306606,10.98066306923306,45.84743828208653,10.978249692248957,1.0,0.0,0.0,0.0,0.0,0.0,0.0,0.0,0.0,0.0
1393535343884,9,4f7ecfc3e4b0a4349ac5b8dd,45.85170791727984,10.98189659664084,45.84743828208653,10.978249692248957,0.0,1.0,0.0,0.0,0.0,0.0,0.0,0.0,0.0,0.0
1393535343884,2,52f7be3911d281cd0e36bd33,45.847698388281984,10.982874800959411,45.84743828208653,10.978249692248957,0.0,0.0,0.0,0.0,1.0,0.0,0.0,0.0,0.0,0.0
1393535343884,14,4e6b489218381ea1be44caf8,45.851854325023886,10.982147520767372,45.84743828208653,10.978249692248957,0.0,0.0,1.0,0.0,0.0,0.0,0.0,0.0,0.0,0.0
1393535343884,1,52ff8c2f498e9145e3eee53b,45.847698388281984,10.982874800959411,45.84743828208653,10.978249692248957,0.0,0.0,0.0,0.0,1.0,0.0,0.0,0.0,0.0,0.0
1393535343884,7,51923426498ef53d1877937b,45.85145285004329,10.974898530905062,45.84743828208653,10.978249692248957,0.0,0.0,0.0,0.0,0.0,0.0,1.0,0.0,0.0,0.0
1393535343884,42,4f7eaeebe4b09e2ac316223a,45.85155145645358,10.982300583154434,45.84743828208653,10.978249692248957,0.0,1.0,0.0,0.0,0.0,0.0,0.0,0.0,0.0,0.0
1393535343884,43,4f3280e6e4b0d77c292734ab,45.85174554253352,10.981982946395874,45.84743828208653,10.978249692248957,0.0,1.0,0.0,0.0,0.0,0.0,0.0,0.0,0.0,0.0
1393535343884,19,4f6b697be4b0ef1d48ab1b32,45.848758697509766,10.974024772644043,45.84743828208653,10.978249692248957,1.0,0.0,0.0,0.0,0.0,0.0,0.0,0.0,0.0,0.0
1393535343884,9,50943d0ce4b00a7cdd4877ce,45.851671947201766,10.978549793330128,45.84743828208653,10.978249692248957,0.0,0.0,0.0,0.0,0.0,0.0,0.0,1.0,0.0,0.0
1393535343884,7,50b4c974e4b0a482e3b7592f,45.844361363292826,10.982725791322672,45.84743828208653,10.978249692248957,0.0,0.0,0.0,0.0,0.0,0.0,1.0,0.0,0.0,0.0
1393535343884,50,4e3ed8b9d4c058f9dc17d364,45.85055121443899,10.980366915295432,45.84743828208653,10.978249692248957,0.0,1.0,0.0,0.0,0.0,0.0,0.0,0.0,0.0,0.0
1393535343884,4,4f5b91a1e4b0cfc5e0ea6298,45.850693099724175,10.979977362621547,45.84743828208653,10.978249692248957,1.0,0.0,0.0,0.0,0.0,0.0,0.0,0.0,0.0,0.0
1393535343884,13,4eef0a47a17c5c9f0f0bd4ac,45.85188005314012,10.979783535003662,45.84743828208653,10.978249692248957,0.0,0.0,0.0,0.0,0.0,0.0,1.0,0.0,0.0,0.0
1393535343884,73,4e627d551495676d55c4b579,45.85152433079519,10.982248905629925,45.84743828208653,10.978249692248957,0.0,0.0,1.0,0.0,0.0,0.0,0.0,0.0,0.0,0.0
1393535343884,16,4d8e1440c1b1721e804d2746,45.85141283344572,10.978892424836694,45.84743828208653,10.978249692248957,0.0,0.0,0.0,0.0,0.0,0.0,0.0,1.0,0.0,0.0
1393535343884,4,52985588498ea43643339448,45.851297108766964,10.978537702704694,45.84743828208653,10.978249692248957,0.0,0.0,0.0,0.0,0.0,0.0,1.0,0.0,0.0,0.0
1393535343884,98,4c8250a651ada1cd5dd21a10,45.852021,10.978161,45.84743828208653,10.978249692248957,0.0,1.0,0.0,0.0,0.0,0.0,0.0,0.0,0.0,0.0
1393535343884,21,4f3d451ce4b0a8ba8f962559,45.84996771199722,10.980189102135483,45.84743828208653,10.978249692248957,0.0,0.0,0.0,0.0,0.0,0.0,0.0,1.0,0.0,0.0
1393535343884,26,4f58872ce4b08e27a0ba2446,45.850303880072694,10.979751139317782,45.84743828208653,10.978249692248957,1.0,0.0,0.0,0.0,0.0,0.0,0.0,0.0,0.0,0.0
1393535343884,3,50081b2ae4b0d9d6f9796261,45.85031167433253,10.979615314980522,45.84743828208653,10.978249692248957,1.0,0.0,0.0,0.0,0.0,0.0,0.0,0.0,0.0,0.0
1393535343884,3,50081908e4b0921582bf30de,45.85031167433253,10.979648009651465,45.84743828208653,10.978249692248957,1.0,0.0,0.0,0.0,0.0,0.0,0.0,0.0,0.0,0.0
1393535343884,3,500818aee4b0921582bf017c,45.850734,10.979596,45.84743828208653,10.978249692248957,1.0,0.0,0.0,0.0,0.0,0.0,0.0,0.0,0.0,0.0
1393535343884,25,4dd959432271c5d36d6a0f13,45.85203395195417,10.978570035430488,45.84743828208653,10.978249692248957,0.0,0.0,1.0,0.0,0.0,0.0,0.0,0.0,0.0,0.0
1393535343884,2,529c490d498ef776e5e963c6,45.84895663159913,10.981388406801313,45.84743828208653,10.978249692248957,0.0,0.0,0.0,0.0,0.0,0.0,1.0,0.0,0.0,0.0
1393535343884,3,52908627498e9f59c03dadcf,45.849431816292025,10.993894981877755,45.84721463326108,10.991121082532157,1.0,0.0,0.0,0.0,0.0,0.0,0.0,0.0,0.0,0.0
1393535343884,1,52ff8c2f498e9145e3eee53b,45.847698388281984,10.982874800959411,45.84721463326108,10.991121082532157,0.0,0.0,0.0,0.0,1.0,0.0,0.0,0.0,0.0,0.0
1393535343884,7,518cb9fd498e9006483387af,45.849726018768735,10.98859268758277,45.84721463326108,10.991121082532157,0.0,1.0,0.0,0.0,0.0,0.0,0.0,0.0,0.0,0.0
1393535343884,6,50265827e4b0844f8ee0a67e,45.84472872173284,10.997691801952797,45.84721463326108,10.991121082532157,0.0,1.0,0.0,0.0,0.0,0.0,0.0,0.0,0.0,0.0
1393535343884,21,4e76e53ce4cd325437f4a567,45.84766523286844,10.986478328704834,45.84721463326108,10.991121082532157,0.0,0.0,0.0,0.0,0.0,0.0,1.0,0.0,0.0,0.0
1393535343884,1,52b31fc5498ec82cded66692,45.848846435546875,10.997422218322754,45.84721463326108,10.991121082532157,0.0,0.0,1.0,0.0,0.0,0.0,0.0,0.0,0.0,0.0
1393535343884,1,52a9622811d2a336925a763a,45.849037170410156,10.996501922607422,45.84721463326108,10.991121082532157,1.0,0.0,0.0,0.0,0.0,0.0,0.0,0.0,0.0,0.0
1393535343884,2,529760be11d2047bd363c3a0,45.84963196161395,10.996326722142138,45.84721463326108,10.991121082532157,0.0,0.0,0.0,0.0,0.0,0.0,1.0,0.0,0.0,0.0
1393535343884,1,5294debd11d2c667e49b9d80,45.84655722795353,10.994633779846662,45.84721463326108,10.991121082532157,0.0,0.0,0.0,0.0,1.0,0.0,0.0,0.0,0.0,0.0
1393535343884,3,4c2dcb6011cb9c74c4ec72b3,45.8460207,10.9870227,45.84721463326108,10.991121082532157,0.0,0.0,0.0,1.0,0.0,0.0,0.0,0.0,0.0,0.0
1393535343884,3,4fbf3493e4b042c7ab4b171e,45.85045623779297,10.990193367004395,45.84721463326108,10.991121082532157,0.0,0.0,0.0,0.0,0.0,0.0,1.0,0.0,0.0,0.0
1393535343884,1,517294b2e4b03b465e0ff683,45.84293746948242,10.987950325012207,45.84721463326108,10.991121082532157,0.0,0.0,1.0,0.0,0.0,0.0,0.0,0.0,0.0,0.0
1393535343884,12,4f8f425fe4b040e3a7595735,45.84469075258798,10.992958545684814,45.84721463326108,10.991121082532157,0.0,0.0,1.0,0.0,0.0,0.0,0.0,0.0,0.0,0.0
1393535343884,1,50f2a411e4b0d13e7d4b6e87,45.85045623779297,10.98532485961914,45.84721463326108,10.991121082532157,0.0,0.0,1.0,0.0,0.0,0.0,0.0,0.0,0.0,0.0
1393535343884,15,4f1fd2b8e4b0aabf5255fe4a,45.85165421713717,10.994729089593207,45.84721463326108,10.991121082532157,0.0,0.0,0.0,0.0,0.0,0.0,1.0,0.0,0.0,0.0
1393535343884,10,4f8d46b0e4b076cabbeedb63,45.847698388281984,10.982874800959411,45.84721463326108,10.991121082532157,0.0,0.0,0.0,0.0,1.0,0.0,0.0,0.0,0.0,0.0
1393535343884,3,4f74893be4b03693d5513de5,45.844830157126005,10.989496809597428,45.84721463326108,10.991121082532157,0.0,0.0,0.0,1.0,0.0,0.0,0.0,0.0,0.0,0.0
1393535343884,1,4d210d29d7b0b1f754061a9f,45.851371,10.993472,45.84721463326108,10.991121082532157,1.0,0.0,0.0,0.0,0.0,0.0,0.0,0.0,0.0,0.0
1393535343884,1,4d523477dcce224b502cea1b,45.84655722795353,10.994633779846662,45.84721463326108,10.991121082532157,0.0,0.0,0.0,0.0,1.0,0.0,0.0,0.0,0.0,0.0
1393535343884,630,4fea9951e4b04052c77eb6a6,45.842896894142214,11.006320978227697,45.84698953543091,11.003992320382103,0.0,0.0,1.0,0.0,0.0,0.0,0.0,0.0,0.0,0.0
1393535343884,520,501fd387e4b0156b48f8153b,45.849997811342504,11.001286321953105,45.84698953543091,11.003992320382103,0.0,0.0,0.0,1.0,0.0,0.0,0.0,0.0,0.0,0.0
1393535343884,191,4d491603782f3704a9a86837,45.847121168963874,11.001691818237305,45.84698953543091,11.003992320382103,0.0,0.0,0.0,1.0,0.0,0.0,0.0,0.0,0.0,0.0
1393535343884,16,522b545611d239b35cd798fd,45.848996509549444,11.001732925621482,45.84698953543091,11.003992320382103,0.0,0.0,0.0,1.0,0.0,0.0,0.0,0.0,0.0,0.0
1393535343884,27,4fb657f2e4b014d752b96438,45.84918706628562,10.999823225794337,45.84698953543091,11.003992320382103,0.0,0.0,0.0,0.0,0.0,1.0,0.0,0.0,0.0,0.0
1393535343884,18,52950d4211d2209a3325679e,45.84541468201387,11.006394122866048,45.84698953543091,11.003992320382103,0.0,0.0,0.0,0.0,1.0,0.0,0.0,0.0,0.0,0.0
1393535343884,37,529676c1498e0ada42a93ed6,45.84541468201387,11.006394122866048,45.84698953543091,11.003992320382103,0.0,0.0,0.0,0.0,1.0,0.0,0.0,0.0,0.0,0.0
1393535343884,6,50265827e4b0844f8ee0a67e,45.84472872173284,10.997691801952797,45.84698953543091,11.003992320382103,0.0,1.0,0.0,0.0,0.0,0.0,0.0,0.0,0.0,0.0
1393535343884,2,52b8a3da498e1c418b8a8275,45.842506408691406,11.007852554321289,45.84698953543091,11.003992320382103,0.0,1.0,0.0,0.0,0.0,0.0,0.0,0.0,0.0,0.0
1393535343884,32,4fccd732e4b00d94c709b9fe,45.84510461336775,11.004637501294622,45.84698953543091,11.003992320382103,0.0,0.0,0.0,0.0,1.0,0.0,0.0,0.0,0.0,0.0
1393535343884,3,5299a910498ee83e5e05993c,45.84541468201387,11.006394122866048,45.84698953543091,11.003992320382103,0.0,0.0,0.0,0.0,1.0,0.0,0.0,0.0,0.0,0.0
1393535343884,1,52b46ffc498e19e4db70a8c7,45.84541468201387,11.006394122866048,45.84698953543091,11.003992320382103,0.0,0.0,0.0,0.0,1.0,0.0,0.0,0.0,0.0,0.0
1393535343884,1,52b31fc5498ec82cded66692,45.848846435546875,10.997422218322754,45.84698953543091,11.003992320382103,0.0,0.0,1.0,0.0,0.0,0.0,0.0,0.0,0.0,0.0
1393535343884,1,52acb81c498e057b3bfdcd20,45.849035,10.999703,45.84698953543091,11.003992320382103,0.0,0.0,1.0,0.0,0.0,0.0,0.0,0.0,0.0,0.0
1393535343884,1,52a9d8d9498ecdaca264dc95,45.84366226196289,11.000226020812988,45.84698953543091,11.003992320382103,1.0,0.0,0.0,0.0,0.0,0.0,0.0,0.0,0.0,0.0
1393535343884,2,52964c6f498e6622cf05a52a,45.84541468201387,11.006394122866048,45.84698953543091,11.003992320382103,0.0,0.0,0.0,0.0,1.0,0.0,0.0,0.0,0.0,0.0
1393535343884,3,5118b29de4b0d4247924859a,45.843377,11.007826,45.84698953543091,11.003992320382103,0.0,0.0,0.0,0.0,0.0,0.0,1.0,0.0,0.0,0.0
1393535343884,1,52965063498ebdfdbeded775,45.84605407714844,11.002030372619629,45.84698953543091,11.003992320382103,0.0,0.0,1.0,0.0,0.0,0.0,0.0,0.0,0.0,0.0
1393535343884,2,52960b1311d2974925d34bdf,45.84541468201387,11.006394122866048,45.84698953543091,11.003992320382103,0.0,0.0,0.0,0.0,1.0,0.0,0.0,0.0,0.0,0.0
1393535343884,28,4e78729081305573459e450b,45.84400316165024,11.008408069610596,45.84698953543091,11.003992320382103,1.0,0.0,0.0,0.0,0.0,0.0,0.0,0.0,0.0,0.0
1393535343884,18,4d62baba196ba093c89a3356,45.844118865726,11.000926455756867,45.84698953543091,11.003992320382103,0.0,0.0,0.0,1.0,0.0,0.0,0.0,0.0,0.0,0.0
1393535343884,75,4e58c53efa76d2b00c039091,45.8488076274764,11.001843383441399,45.84698953543091,11.003992320382103,0.0,0.0,1.0,0.0,0.0,0.0,0.0,0.0,0.0,0.0
1393535343884,16,4e8643137ee64ca88224e144,45.843514139972754,11.007849283493194,45.84698953543091,11.003992320382103,1.0,0.0,0.0,0.0,0.0,0.0,0.0,0.0,0.0,0.0
1393535343884,7,5122625ee4b00c953530efa4,45.84341917410491,11.007911663742465,45.84698953543091,11.003992320382103,1.0,0.0,0.0,0.0,0.0,0.0,0.0,0.0,0.0,0.0
1393535343884,18,4ef4ddb9d3e32dc39a320a72,45.842736927406406,11.0076838856721,45.84698953543091,11.003992320382103,0.0,1.0,0.0,0.0,0.0,0.0,0.0,0.0,0.0,0.0
1393535343884,49,4d9a536d0d5f224ba51aa44e,45.84541468201387,11.006394122866048,45.84698953543091,11.003992320382103,0.0,0.0,0.0,0.0,1.0,0.0,0.0,0.0,0.0,0.0
1393535343884,16,4eab95b961af01ea2adc0613,45.84803595102921,11.001821652768465,45.84698953543091,11.003992320382103,0.0,0.0,0.0,1.0,0.0,0.0,0.0,0.0,0.0,0.0
1393535343884,1,51d045dd498e2beba7c7666d,45.84653091430664,10.997824668884277,45.84698953543091,11.003992320382103,0.0,0.0,1.0,0.0,0.0,0.0,0.0,0.0,0.0,0.0
1393535343884,2,50e2ef9ee4b070c04022e653,45.84541468201387,11.006394122866048,45.84698953543091,11.003992320382103,0.0,0.0,0.0,0.0,1.0,0.0,0.0,0.0,0.0,0.0
1393535343884,0,5002a77be4b023056de897da,45.84541468201387,11.006394122866048,45.84698953543091,11.003992320382103,0.0,0.0,0.0,0.0,1.0,0.0,0.0,0.0,0.0,0.0
1393535343884,19,51eabb35498ea3219de2c619,45.85054742481993,11.017084615553781,45.84676298864095,11.016863404816654,0.0,0.0,0.0,0.0,0.0,0.0,1.0,0.0,0.0,0.0
1393535343884,18,4ff18b92e4b08abf250d981d,45.85059729249087,11.016985662173377,45.84676298864095,11.016863404816654,0.0,0.0,0.0,0.0,0.0,0.0,1.0,0.0,0.0,0.0
1393535343884,2,4f9be39ae4b0d8e6224f0503,45.84503454486994,11.011326313018799,45.84676298864095,11.016863404816654,0.0,0.0,1.0,0.0,0.0,0.0,0.0,0.0,0.0,0.0
1393535343884,2,500a99cde4b02b2a7ef7d2a4,45.84427075006342,11.018155828587897,45.84676298864095,11.016863404816654,0.0,0.0,0.0,0.0,1.0,0.0,0.0,0.0,0.0,0.0
1393535343884,11,4e25baddb61ceeea677e5eb0,45.8453035982173,11.032676696777344,45.84653499293644,11.029734334853744,0.0,0.0,0.0,0.0,0.0,1.0,0.0,0.0,0.0,0.0
1393535343884,1,51e26aff498e7dedc600bfd5,45.8435,11.1172,45.84489845725797,11.119826439506594,0.0,0.0,1.0,0.0,0.0,0.0,0.0,0.0,0.0,0.0
1393535343884,5,51e98830498e35126097ed7c,45.860002,10.568268,45.862826915972256,10.566543294937752,0.0,1.0,0.0,0.0,0.0,0.0,0.0,0.0,0.0,0.0
1393535343884,21,4f049b4f6da1b97b16699894,45.86001785378999,10.568422983974195,45.862826915972256,10.566543294937752,0.0,1.0,0.0,0.0,0.0,0.0,0.0,0.0,0.0,0.0
1393535343884,5,523ff87011d2bc3c67abc205,45.860794454146216,10.575476608303598,45.86264960197455,10.579421119291666,0.0,0.0,1.0,0.0,0.0,0.0,0.0,0.0,0.0,0.0
1393535343884,12,503673fee4b02f167b4427ab,45.86608073103287,10.576140768001302,45.86264960197455,10.579421119291666,0.0,0.0,0.0,1.0,0.0,0.0,0.0,0.0,0.0,0.0
1393535343884,13,4e79ced02271920e47316a26,45.86604309082031,10.576251983642578,45.86264960197455,10.579421119291666,0.0,1.0,0.0,0.0,0.0,0.0,0.0,0.0,0.0,0.0
1393535343884,15,4d68dde86297721eb93ec1b5,45.86588097545738,10.576451978793694,45.86264960197455,10.579421119291666,0.0,0.0,0.0,1.0,0.0,0.0,0.0,0.0,0.0,0.0
1393535343884,2,4c3c89997f49c9b675fd6be3,45.862468,10.579332,45.86264960197455,10.579421119291666,0.0,0.0,1.0,0.0,0.0,0.0,0.0,0.0,0.0,0.0
1393535343884,7,51d6f643498ec745a9c4146b,45.86419604064088,10.646327135778817,45.861741271559524,10.643808405774756,0.0,0.0,1.0,0.0,0.0,0.0,0.0,0.0,0.0,0.0
1393535343884,4,51d30bc7498e483fe971ea50,45.856701,10.830528,45.85900503697398,10.824075662110022,0.0,0.0,0.0,0.0,0.0,1.0,0.0,0.0,0.0,0.0
1393535343884,8,4d985034e07ea35de7f0ee02,45.856817084555,10.830502602982,45.85900503697398,10.824075662110022,0.0,0.0,1.0,0.0,0.0,0.0,0.0,0.0,0.0,0.0
1393535343884,4,51d30bc7498e483fe971ea50,45.856701,10.830528,45.8587987152337,10.836950878626297,0.0,0.0,0.0,0.0,0.0,1.0,0.0,0.0,0.0,0.0
1393535343884,44,4c946a9d03413704411972ef,45.86230010895221,10.832542213264334,45.8587987152337,10.836950878626297,0.0,0.0,1.0,0.0,0.0,0.0,0.0,0.0,0.0,0.0
1393535343884,8,4d985034e07ea35de7f0ee02,45.856817084555,10.830502602982,45.8587987152337,10.836950878626297,0.0,0.0,1.0,0.0,0.0,0.0,0.0,0.0,0.0,0.0
1393535343884,0,51dc62565019266173cdd0cd,45.85428624347398,10.833721160888672,45.8587987152337,10.836950878626297,0.0,0.0,0.0,1.0,0.0,0.0,0.0,0.0,0.0,0.0
1393535343884,239,4c09ebed340720a107b58593,45.86226430278728,10.875801187379581,45.85817105033799,10.875575679894304,0.0,0.0,1.0,0.0,0.0,0.0,0.0,0.0,0.0,0.0
1393535343884,155,4d7d0af1049edcb3c7c3d3c0,45.86240076372395,10.875434875488281,45.85817105033799,10.875575679894304,0.0,0.0,1.0,0.0,0.0,0.0,0.0,0.0,0.0,0.0
1393535343884,159,4c627ce486b6be9a49218c34,45.862045,10.875594,45.85817105033799,10.875575679894304,0.0,0.0,1.0,0.0,0.0,0.0,0.0,0.0,0.0,0.0
1393535343884,67,4c77984d07818cfa9fded4e3,45.86227999947076,10.875893629387829,45.85817105033799,10.875575679894304,0.0,1.0,0.0,0.0,0.0,0.0,0.0,0.0,0.0,0.0
1393535343884,0,521f1fa07e48238b692bddbe,45.85755909302365,10.871057510375977,45.85817105033799,10.875575679894304,0.0,0.0,1.0,0.0,0.0,0.0,0.0,0.0,0.0,0.0
1393535343884,0,521f1f1e7e48238b692ba1af,45.857424596152576,10.871422290802002,45.85817105033799,10.875575679894304,0.0,0.0,1.0,0.0,0.0,0.0,0.0,0.0,0.0,0.0
1393535343884,0,50542cdee4b04ed4f06766e6,45.857842,10.871143,45.85817105033799,10.875575679894304,0.0,0.0,0.0,1.0,0.0,0.0,0.0,0.0,0.0,0.0
1393535343884,2,503501e6e4b01a8b05287b2a,45.8537332772689,10.8919358253479,45.85795892895379,10.888450327611698,0.0,0.0,1.0,0.0,0.0,0.0,0.0,0.0,0.0,0.0
1393535343884,1,50332e49e4b09f23f0f4fb0f,45.85946,10.898502,45.85774535776383,10.901324830670793,0.0,0.0,0.0,0.0,0.0,1.0,0.0,0.0,0.0,0.0
1393535343884,1,50332755e4b09f23f0f2973a,45.859786,10.900943,45.85774535776383,10.901324830670793,0.0,0.0,1.0,0.0,0.0,0.0,0.0,0.0,0.0,0.0
1393535343884,41,4f61fd38e4b038d69cd65984,45.85522149378594,10.93232697878109,45.85731386613759,10.927073398880982,1.0,0.0,0.0,0.0,0.0,0.0,0.0,0.0,0.0,0.0
1393535343884,39,4e80457f6da1ef1165f8ddaa,45.85606092895085,10.928279757499695,45.85731386613759,10.927073398880982,0.0,1.0,0.0,0.0,0.0,0.0,0.0,0.0,0.0,0.0
1393535343884,53,4e949ac79a521c5c7f2e099c,45.85586449409442,10.928650948187325,45.85731386613759,10.927073398880982,0.0,0.0,0.0,0.0,0.0,0.0,1.0,0.0,0.0,0.0
1393535343884,82,4ca7adad931bb60c2d03a0e2,45.85428624347398,10.945934057235718,45.85709594578749,10.939947462065703,0.0,0.0,0.0,0.0,0.0,0.0,0.0,1.0,0.0,0.0
1393535343884,465,4d25ed150167a1cdf5fda1bd,45.85483535256985,10.934490391657079,45.85709594578749,10.939947462065703,0.0,0.0,1.0,0.0,0.0,0.0,0.0,0.0,0.0,0.0
1393535343884,37,4eaf1818775bbddde731ae90,45.854578943995314,10.934411597773115,45.85709594578749,10.939947462065703,0.0,0.0,0.0,1.0,0.0,0.0,0.0,0.0,0.0,0.0
1393535343884,100,4e47e5f77d8b91a065a208c5,45.85467854724484,10.94611644744873,45.85709594578749,10.939947462065703,1.0,0.0,0.0,0.0,0.0,0.0,0.0,0.0,0.0,0.0
1393535343884,21,4f75ced0e4b02ca6e4a344d6,45.85460384810058,10.935614241459126,45.85709594578749,10.939947462065703,0.0,0.0,1.0,0.0,0.0,0.0,0.0,0.0,0.0,0.0
1393535343884,3,510e6ce8e4b0150a60240a11,45.8591423034668,10.93960189819336,45.85709594578749,10.939947462065703,0.0,0.0,1.0,0.0,0.0,0.0,0.0,0.0,0.0,0.0
1393535343884,14,4fe717e7e4b0e1967f016954,45.85468550331172,10.942046602365961,45.85709594578749,10.939947462065703,0.0,1.0,0.0,0.0,0.0,0.0,0.0,0.0,0.0,0.0
1393535343884,17,4ea303f45c5cd12b35e397be,45.85429688021184,10.951187912990765,45.85687657580402,10.95282137665938,0.0,0.0,0.0,0.0,0.0,0.0,0.0,1.0,0.0,0.0
